[
  {
    "name": "开封市汪屯供电所",
    "account": "4105166120412 ",
    "lng": "116.332517",
    "lat": "39.87857",
    "capacity": "12.96",
    "power": "开封市汪屯供电所",
    "county": "国网开封市祥符供电公司"
  },
  {
    "name": "开封市兰考谷营供电所",
    "account": "4105164118703 ",
    "lng": "116.653487",
    "lat": "40.134274",
    "capacity": "12.96",
    "power": "开封市兰考谷营供电所",
    "county": "国网河南省电力公司兰考县供电公司"
  },
  {
    "name": "南阳市新野县城区供电营业厅",
    "account": "4105164206507 ",
    "lng": "116.647685",
    "lat": "39.910488",
    "capacity": "28.6",
    "power": "南阳市新野县城区供电营业厅",
    "county": "国网河南省电力公司新野县供电公司"
  },
  {
    "name": "驻马店供电公司市郊区供电所",
    "account": "4105164718189 ",
    "lng": "116.665889",
    "lat": "39.916271",
    "capacity": "25.3",
    "power": "驻马店供电公司市郊区供电所",
    "county": "国网驻马店供电公司"
  },
  {
    "name": "南阳市淅川香花供电所",
    "account": "4105165231678 ",
    "lng": "116.061989",
    "lat": "39.890166",
    "capacity": "20.9",
    "power": "南阳市淅川香花供电所",
    "county": "国网河南省电力公司淅川县供电公司"
  },
  {
    "name": "许昌市建安区椹涧乡供电所",
    "account": "4105165275629 ",
    "lng": "116.297693",
    "lat": "39.96506",
    "capacity": "29",
    "power": "许昌市建安区椹涧乡供电所",
    "county": "国网许昌供电公司"
  },
  {
    "name": "周口市扶沟县供局一二所",
    "account": "4105165311842 ",
    "lng": "116.815376",
    "lat": "39.861564",
    "capacity": "27.5",
    "power": "周口市扶沟县供局一二所",
    "county": "国网河南省电力公司扶沟县供电公司"
  },
  {
    "name": "周口市扶沟县大李庄供电所",
    "account": "4105165315020 ",
    "lng": "116.653487",
    "lat": "40.134274",
    "capacity": "14.3",
    "power": "周口市扶沟县大李庄供电所",
    "county": "国网河南省电力公司扶沟县供电公司"
  },
  {
    "name": "驻马店上蔡县朱里镇供电所",
    "account": "4105165509245 ",
    "lng": "116.707627",
    "lat": "40.107736",
    "capacity": "11",
    "power": "驻马店上蔡县朱里镇供电所",
    "county": "国网河南省电力公司上蔡县供电公司"
  },
  {
    "name": "许昌市鄢陵县只乐供电所",
    "account": "4105165512216 ",
    "lng": "116.277008",
    "lat": "40.670443",
    "capacity": "23.65",
    "power": "许昌市鄢陵县只乐供电所",
    "county": "国网河南省电力公司鄢陵县供电公司"
  },
  {
    "name": "开封市杞县供电公司办公楼",
    "account": "4105165689422 ",
    "lng": "116.197268",
    "lat": "39.920645",
    "capacity": "19.44",
    "power": "开封市杞县供电公司",
    "county": "国网河南省电力公司杞县供电公司"
  },
  {
    "name": "信阳市九店供电所营业厅",
    "account": "4105165701537 ",
    "lng": "116.445485",
    "lat": "39.912292",
    "capacity": "23.65",
    "power": "信阳市九店供电所营业厅",
    "county": "国网信阳供电公司"
  },
  {
    "name": "驻马店市正阳县大林镇供电所",
    "account": "4105165956155 ",
    "lng": "116.76217",
    "lat": "40.270701",
    "capacity": "26.4",
    "power": "驻马店市正阳县大林镇供电所",
    "county": "国网河南省电力公司正阳县供电公司"
  },
  {
    "name": "洛阳市伊川县常川供电所",
    "account": "4105166085540 ",
    "lng": "116.297693",
    "lat": "39.96506",
    "capacity": "27",
    "power": "洛阳市伊川县常川供电所",
    "county": "国网河南省电力公司伊川县供电公司"
  },
  {
    "name": "洛阳市宜阳县香鹿山供电所",
    "account": "4105166095206 ",
    "lng": "116.297693",
    "lat": "39.96506",
    "capacity": "59.4",
    "power": "洛阳市宜阳县香鹿山供电所",
    "county": "国网河南省电力公司宜阳县供电公司"
  },
  {
    "name": "信阳市息县白店乡供电所",
    "account": "4105165017245 ",
    "lng": "116.538231",
    "lat": "39.888341",
    "capacity": "15.4",
    "power": "信阳市息县白店乡供电所",
    "county": "国网河南省电力公司息县供电公司"
  },
  {
    "name": "南阳市桐柏县电力设计院",
    "account": "4105165617328 ",
    "lng": "116.207902",
    "lat": "39.828481",
    "capacity": "22",
    "power": "南阳市桐柏县电力设计院",
    "county": "国网河南省电力公司桐柏县供电公司"
  },
  {
    "name": "郑州市新密市袁庄供电所",
    "account": "4105162783277 ",
    "lng": "116.278246",
    "lat": "39.845077",
    "capacity": "18.75",
    "power": "郑州市新密市袁庄供电所",
    "county": "国网河南省电力公司新密市供电公司"
  },
  {
    "name": "焦作市温县供电公司办公楼",
    "account": "4105162893532 ",
    "lng": "104.46",
    "lat": "32.58",
    "capacity": "36",
    "power": "焦作市温县供电公司",
    "county": "国网河南省电力公司温县供电公司"
  },
  {
    "name": "焦作市温县城镇供电营业厅",
    "account": "4105162912026 ",
    "lng": "104.46",
    "lat": "32.58",
    "capacity": "15.66",
    "power": "焦作市温县城镇供电营业厅",
    "county": "国网河南省电力公司温县供电公司"
  },
  {
    "name": "许昌建安区电业局",
    "account": "4105165289811",
    "capacity": "34",
    "power": "许昌建安区电业局",
    "county": "国网许昌供电公司"
  },
  {
    "name": "许昌市鄢陵县南坞供电所",
    "account": "4105165508284",
    "lng": "116.277008",
    "lat": "40.670443",
    "capacity": "14.3",
    "power": "许昌市鄢陵县南坞供电所",
    "county": "国网河南省电力公司鄢陵县供电公司"
  },
  {
    "name": "许昌市鄢陵县柏梁供电所",
    "account": "4105165510832",
    "lng": "116.277008",
    "lat": "40.670443",
    "capacity": "15.4",
    "power": "许昌市鄢陵县柏梁供电所",
    "county": "国网河南省电力公司鄢陵县供电公司"
  },
  {
    "name": "许昌市鄢陵县大马镇供电所",
    "account": "4105165511095",
    "lng": "116.277008",
    "lat": "40.670443",
    "capacity": "19.25",
    "power": "许昌市鄢陵县大马镇供电所",
    "county": "国网河南省电力公司鄢陵县供电公司"
  },
  {
    "name": "许昌市鄢陵县马栏镇供电所",
    "account": "4105165511473",
    "lng": "116.277008",
    "lat": "40.670443",
    "capacity": "23.1",
    "power": "许昌市鄢陵县马栏镇供电所",
    "county": "国网河南省电力公司鄢陵县供电公司"
  },
  {
    "name": "许昌市鄢陵县彭店供电所",
    "account": "4105165511721",
    "lng": "116.277008",
    "lat": "40.670443",
    "capacity": "18.7",
    "power": "许昌市鄢陵县彭店供电所",
    "county": "国网河南省电力公司鄢陵县供电公司"
  },
  {
    "name": "许昌市鄢陵县张桥供电所",
    "account": "4105165512434",
    "lng": "116.277008",
    "lat": "40.670443",
    "capacity": "14.3",
    "power": "许昌市鄢陵县张桥供电所",
    "county": "国网河南省电力公司鄢陵县供电公司"
  },
  {
    "name": "许昌市鄢陵县城东供电部",
    "account": "4105165479773",
    "lng": "116.277008",
    "lat": "40.670443",
    "capacity": "74.25",
    "power": "许昌市鄢陵县城东供电部",
    "county": "国网河南省电力公司鄢陵县供电公司"
  },
  {
    "name": "许昌市鄢陵县马坊供电所",
    "account": "4105165511981",
    "lng": "116.277008",
    "lat": "40.670443",
    "capacity": "33.5",
    "power": "许昌市鄢陵县马坊供电所",
    "county": "国网河南省电力公司鄢陵县供电公司"
  },
  {
    "name": "开封市杞县宗店供电所",
    "account": "4105165706819",
    "lng": "118.3681",
    "lat": "31.3407",
    "capacity": "12.96",
    "power": "开封市杞县宗店供电所",
    "county": "国网河南省电力公司杞县供电公司"
  },
  {
    "name": "开封市杞县邢口供电所",
    "account": "4105165681907",
    "lng": "118.3681",
    "lat": "31.3407",
    "capacity": "10.8",
    "power": "开封市杞县邢口供电所",
    "county": "国网河南省电力公司杞县供电公司"
  },
  {
    "name": "开封市杞县湖岗供电所",
    "account": "4105165692741",
    "lng": "118.3681",
    "lat": "31.3407",
    "capacity": "16.2",
    "power": "开封市杞县湖岗供电所",
    "county": "国网河南省电力公司杞县供电公司"
  },
  {
    "name": "开封市杞县付集供电所",
    "account": "4105165699016",
    "lng": "118.3681",
    "lat": "31.3407",
    "capacity": "12.96",
    "power": "开封市杞县付集供电所",
    "county": "国网河南省电力公司杞县供电公司"
  },
  {
    "name": "开封市杞县泥沟供电所",
    "account": "4105165700651",
    "lng": "118.3681",
    "lat": "31.3407",
    "capacity": "12.96",
    "power": "开封市杞县泥沟供电所",
    "county": "国网河南省电力公司杞县供电公司"
  },
  {
    "name": "开封市杞县西寨供电所",
    "account": "4105165682203",
    "lng": "118.3681",
    "lat": "31.3407",
    "capacity": "12.96",
    "power": "开封市杞县西寨供电所",
    "county": "国网河南省电力公司杞县供电公司"
  },
  {
    "name": "周口市扶沟县电业局办公大楼主楼",
    "account": "4105165307360",
    "lng": "116.653487",
    "lat": "40.134274",
    "capacity": "61.6",
    "power": "周口市扶沟县电业局",
    "county": "国网河南省电力公司扶沟县供电公司"
  },
  {
    "name": "周口市扶沟县白潭供电所",
    "account": "4105165314027",
    "lng": "116.653487",
    "lat": "40.134274",
    "capacity": "36.3",
    "power": "周口市扶沟县白潭供电所",
    "county": "国网河南省电力公司扶沟县供电公司"
  },
  {
    "name": "驻马店市汝南县张楼供电所",
    "account": "4105164670869",
    "lng": "116.647",
    "lat": "40.128",
    "capacity": "8.25",
    "power": "驻马店市汝南县张楼供电所",
    "county": "国网河南省电力公司汝南县供电公司"
  },
  {
    "name": "驻马店市汝南县大王庄供电所",
    "account": "4105164701767",
    "lng": "116.647",
    "lat": "40.128",
    "capacity": "9.9",
    "power": "驻马店市汝南县大王庄供电所",
    "county": "国网河南省电力公司汝南县供电公司"
  },
  {
    "name": "驻马店市汝南县留盆供电所",
    "account": "4105164726357",
    "lng": "116.647",
    "lat": "40.128",
    "capacity": "46.75",
    "power": "驻马店市汝南县留盆供电所",
    "county": "国网河南省电力公司汝南县供电公司"
  },
  {
    "name": "驻马店市汝南县综合办公楼",
    "account": "4105164925507",
    "lng": "116.647",
    "lat": "40.128",
    "capacity": "16.5",
    "power": "驻马店市汝南县供电公司",
    "county": "国网河南省电力公司汝南县供电公司"
  },
  {
    "name": "驻马店市汝南县板店乡供电所",
    "account": "4105164931681",
    "lng": "116.647",
    "lat": "40.128",
    "capacity": "12.1",
    "power": "驻马店市汝南县板店乡供电所",
    "county": "国网河南省电力公司汝南县供电公司"
  },
  {
    "name": "驻马店市汝南县舍屯供电所",
    "account": "4105164932075",
    "lng": "116.647",
    "lat": "40.128",
    "capacity": "9.9",
    "power": "驻马店市汝南县舍屯供电所",
    "county": "国网河南省电力公司汝南县供电公司"
  },
  {
    "name": "驻马店市汝南县官庄供电所",
    "account": "4105164932668",
    "lng": "116.647",
    "lat": "40.128",
    "capacity": "8.25",
    "power": "驻马店市汝南县官庄供电所",
    "county": "国网河南省电力公司汝南县供电公司"
  },
  {
    "name": "驻马店市汝南县和孝供电所",
    "account": "4105164933241",
    "lng": "116.647",
    "lat": "40.128",
    "capacity": "63.8",
    "power": "驻马店市汝南县和孝供电所",
    "county": "国网河南省电力公司汝南县供电公司"
  },
  {
    "name": "南阳市淅川寺湾供电所",
    "account": "4105165459670",
    "lng": "116.061989",
    "lat": "39.890166",
    "capacity": "25.3",
    "power": "南阳市淅川寺湾供电所",
    "county": "国网河南省电力公司淅川县供电公司"
  },
  {
    "name": "南阳市桐柏县黄岗供电所",
    "account": "4105165192919",
    "lng": "116.207902",
    "lat": "39.828481",
    "capacity": "11",
    "power": "南阳市桐柏县黄岗供电所",
    "county": "国网河南省电力公司桐柏县供电公司"
  },
  {
    "name": "南阳市桐柏县新集供电所",
    "account": "4105165605943",
    "lng": "116.207902",
    "lat": "39.828481",
    "capacity": "16.5",
    "power": "南阳市桐柏县新集供电所",
    "county": "国网河南省电力公司桐柏县供电公司"
  },
  {
    "name": "南阳市桐柏县程湾供电所",
    "account": "4105165606920",
    "lng": "116.207902",
    "lat": "39.828481",
    "capacity": "16.5",
    "power": "南阳市桐柏县程湾供电所",
    "county": "国网河南省电力公司桐柏县供电公司"
  },
  {
    "name": "南阳市桐柏县大河供电所",
    "account": "4105165617575",
    "lng": "116.207902",
    "lat": "39.828481",
    "capacity": "18.15",
    "power": "南阳市桐柏县大河供电所",
    "county": "国网河南省电力公司桐柏县供电公司"
  },
  {
    "name": "南阳市桐柏县朱庄供电所",
    "account": "4105165617751",
    "lng": "116.207902",
    "lat": "39.828481",
    "capacity": "22",
    "power": "南阳市桐柏县朱庄供电所",
    "county": "国网河南省电力公司桐柏县供电公司"
  },
  {
    "name": "信阳市息县孙庙供电所",
    "account": "4105165048906",
    "lng": "116.538231",
    "lat": "39.888341",
    "capacity": "13.75",
    "power": "信阳市息县孙庙供电所",
    "county": "国网河南省电力公司息县供电公司"
  }
]
