[
  {
    "name": "周口市太康县常营供电所",
    "account": "4105165691940 ",
    "lng": "114.618514",
    "lat": "34.113304",
    "capacity": "14.3",
    "power": "周口市太康县常营供电所",
    "county": "国网河南省电力公司太康县供电公司"
  },
  {
    "name": "焦作市解放区供电局",
    "account": "4105162987800 ",
    "lng": "113.230183",
    "lat": "35.230434",
    "capacity": "59.94",
    "power": "焦作市解放区供电局",
    "county": "国网河南省电力公司焦作供电公司"
  },
  {
    "name": "郑州市新密市城关供电所",
    "account": "4105164869975 ",
    "lng": "113.362781",
    "lat": "34.777766",
    "capacity": "10",
    "power": "郑州市新密市城关供电所",
    "county": "国网河南省电力公司新密市供电公司"
  },
  {
    "name": "安阳市滑县电业局",
    "account": "4105165425617 ",
    "lng": "114.532221",
    "lat": "35.546108",
    "capacity": "21.6",
    "power": "安阳市滑县电业局",
    "county": "国网河南省电力公司滑县供电公司"
  },
  {
    "name": "信阳市光山县文殊供电所",
    "account": "4105165471506 ",
    "lng": "114.77012",
    "lat": "31.923306",
    "capacity": "33.55",
    "power": "信阳市光山县文殊供电所",
    "county": "国网河南省电力公司光山县供电公司"
  },
  {
    "name": "信阳市光山县马畈供电所",
    "account": "4105165502954 ",
    "lng": "114.081375",
    "lat": "32.1084",
    "capacity": "19.25",
    "power": "信阳市光山县马畈供电所",
    "county": "国网河南省电力公司光山县供电公司"
  },
  {
    "name": "信阳市光山县殷棚供电所",
    "account": "4105165503221 ",
    "lng": "114.608181",
    "lat": "31.842612",
    "capacity": "13.2",
    "power": "信阳市光山县殷棚供电所",
    "county": "国网河南省电力公司光山县供电公司"
  },
  {
    "name": "安阳市优创集团建筑公司",
    "account": "4105165663217 ",
    "lng": "114.331628",
    "lat": "36.104775",
    "capacity": "24.3",
    "power": "安阳市优创集团建筑公司",
    "county": "国网河南省电力公司安阳供电公司"
  },
  {
    "name": "平顶山市鲁山县仓头供电所",
    "account": "4105166009863 ",
    "lng": "112.79778",
    "lat": "33.876391",
    "capacity": "14.3",
    "power": "平顶山市鲁山县仓头供电所",
    "county": "国网河南省电力公司鲁山县供电公司"
  },
  {
    "name": "南阳市唐河县供电公司办公楼",
    "account": "4105189396829 ",
    "lng": "112.846274",
    "lat": "32.687572",
    "capacity": "76.45",
    "power": "南阳市唐河县供电公司",
    "county": "国网河南省电力公司唐河县供电公司"
  },
  {
    "name": "南阳市邓州市孟楼供电所",
    "account": "4105163926479 ",
    "lng": "111.847769",
    "lat": "32.532949",
    "capacity": "12.1",
    "power": "南阳市邓州市孟楼供电所",
    "county": "国网河南省电力公司邓州市供电公司"
  },
  {
    "name": "河南技培中心",
    "account": "4105160983864 ",
    "lng": "113.604819",
    "lat": "34.798761",
    "capacity": "73.48",
    "power": "河南技培中心",
    "county": "国网河南省电力公司"
  },
  {
    "name": "南阳市社旗县桥头供电所",
    "account": "4105163246151 ",
    "lng": "112.821646",
    "lat": "33.053208",
    "capacity": "16.5",
    "power": "南阳市社旗县桥头供电所",
    "county": "国网河南省电力公司社旗县供电公司"
  },
  {
    "name": "南阳市社旗县晋庄镇供电所",
    "account": "4105163331695 ",
    "lng": "112.798501",
    "lat": "32.940433",
    "capacity": "11",
    "power": "南阳市社旗县晋庄镇供电所",
    "county": "国网河南省电力公司社旗县供电公司"
  },
  {
    "name": "新乡市长垣县樊相供电所",
    "account": "4105163553644 ",
    "lng": "114.654306",
    "lat": "35.269024",
    "capacity": "12.96",
    "power": "新乡市长垣县樊相供电所",
    "county": "国网河南省电力公司长垣县供电公司"
  },
  {
    "name": "新乡市获嘉县十里铺供电所",
    "account": "4105163570331 ",
    "lng": "113.692259",
    "lat": "35.188025",
    "capacity": "29.16",
    "power": "新乡市获嘉县十里铺供电所",
    "county": "国网河南省电力公司获嘉县供电公司"
  },
  {
    "name": "鹤壁市淇县供电公司",
    "account": "4105163577781 ",
    "lng": "114.1950377",
    "lat": "35.61988187",
    "capacity": "37.8",
    "power": "鹤壁市淇县供电公司",
    "county": "国网河南省电力公司淇县供电公司"
  },
  {
    "name": "鹤壁市淇县北阳供电所",
    "account": "4105163583911 ",
    "lng": "114.153354",
    "lat": "35.581768",
    "capacity": "18.36",
    "power": "鹤壁市淇县北阳供电所",
    "county": "国网河南省电力公司淇县供电公司"
  },
  {
    "name": "鹤壁市淇县桥盟供电所",
    "account": "4105163604472 ",
    "lng": "114.194678",
    "lat": "35.632237",
    "capacity": "11.34",
    "power": "鹤壁市淇县桥盟供电所",
    "county": "国网河南省电力公司淇县供电公司"
  },
  {
    "name": "驻马店市西平县二郎乡供电所",
    "account": "4105163614529 ",
    "lng": "114.113244",
    "lat": "33.357834",
    "capacity": "48.6",
    "power": "驻马店市西平县二郎乡供电所",
    "county": "国网河南省电力公司西平县供电公司"
  },
  {
    "name": "南阳市邓州市高集供电所",
    "account": "4105163890765 ",
    "lng": "112.840303",
    "lat": "33.119106",
    "capacity": "22",
    "power": "南阳市邓州市高集供电所",
    "county": "国网河南省电力公司邓州市供电公司"
  },
  {
    "name": "南阳市邓州市龙堰供电所",
    "account": "4105163926277",
    "lng": "112.091668",
    "lat": "32.593301",
    "capacity": "27.5",
    "power": "南阳市邓州市龙堰供电所",
    "county": "国网河南省电力公司邓州市供电公司"
  },
  {
    "name": "南阳市邓州市罗庄镇供电所",
    "account": "4105163926424 ",
    "lng": "111.923704",
    "lat": "32.947068",
    "capacity": "22",
    "power": "南阳市邓州市罗庄镇供电所",
    "county": "国网河南省电力公司邓州市供电公司"
  },
  {
    "name": "南阳市邓州市赵集供电所",
    "account": "4105163944332 ",
    "lng": "112.000425",
    "lat": "32.849298",
    "capacity": "53.9",
    "power": "南阳市邓州市赵集供电所",
    "county": "国网河南省电力公司邓州市供电公司"
  },
  {
    "name": "南阳市邓州市刘集供电所",
    "account": "4105163946556 ",
    "lng": "112.220481",
    "lat": "32.462551",
    "capacity": "27.5",
    "power": "南阳市邓州市刘集供电所",
    "county": "国网河南省电力公司邓州市供电公司"
  },
  {
    "name": "南阳市邓州市腰店供电所",
    "account": "4105163958407 ",
    "lng": "112.198384",
    "lat": "32.685599",
    "capacity": "24.2",
    "power": "南阳市邓州市腰店供电所",
    "county": "国网河南省电力公司邓州市供电公司"
  },
  {
    "name": "南阳市邓州市构林供电所",
    "account": "4105163964770 ",
    "lng": "112.12374",
    "lat": "32.503411",
    "capacity": "27.5",
    "power": "南阳市邓州市构林供电所",
    "county": "国网河南省电力公司邓州市供电公司"
  },
  {
    "name": "南阳市邓州市城市供电分局营业厅",
    "account": "4105164002381 ",
    "lng": "112.09008",
    "lat": "32.655009",
    "capacity": "48.4",
    "power": "南阳市邓州市城市供电分局营业厅",
    "county": "国网河南省电力公司邓州市供电公司"
  },
  {
    "name": "开封市开封县罗王供电所",
    "account": "4105164045427 ",
    "lng": "114.447607",
    "lat": "34.747116",
    "capacity": "20",
    "power": "开封市开封县罗王供电所",
    "county": "国网开封市祥符供电公司"
  },
  {
    "name": "郑州市巩义市北山口供电所",
    "account": "4105164057873 ",
    "lng": "113.026076",
    "lat": "34.724145",
    "capacity": "20.79",
    "power": "郑州市巩义市北山口供电所",
    "county": "国网河南省电力公司巩义市供电公司"
  },
  {
    "name": "开封市区范村供电所",
    "account": "4105164057886 ",
    "lng": "114.407683",
    "lat": "34.679505",
    "capacity": "32",
    "power": "开封市区范村供电所",
    "county": "国网开封市祥符供电公司"
  },
  {
    "name": "郑州市巩义市西村供电所",
    "account": "4105164058616 ",
    "lng": "113.440706",
    "lat": "34.74819",
    "capacity": "10",
    "power": "郑州市巩义市西村供电所",
    "county": "国网河南省电力公司巩义市供电公司"
  },
  {
    "name": "开封市曲兴供电所",
    "account": "4105164110770 ",
    "lng": "114.679304",
    "lat": "34.831683",
    "capacity": "26",
    "power": "开封市曲兴供电所",
    "county": "国网开封市祥符供电公司"
  },
  {
    "name": "驻马店市西平县专探乡供电所",
    "account": "4105164170398 ",
    "lng": "114.038357",
    "lat": "33.503824",
    "capacity": "18.1",
    "power": "驻马店市西平县专探乡供电所",
    "county": "国网河南省电力公司西平县供电公司"
  },
  {
    "name": "新乡市获嘉县中和供电所",
    "account": "4105164187042 ",
    "lng": "113.603647",
    "lat": "35.198155",
    "capacity": "29.52",
    "power": "新乡市获嘉县中和供电所",
    "county": "国网河南省电力公司获嘉县供电公司"
  },
  {
    "name": "安阳市安阳县伦掌供电所",
    "account": "4105164307880 ",
    "lng": "114.133496",
    "lat": "36.222891",
    "capacity": "27",
    "power": "安阳市安阳县伦掌供电所",
    "county": "国网河南省电力公司安阳县供电公司"
  },
  {
    "name": "焦作市修武县周庄供电所",
    "account": "4105164330361 ",
    "lng": "113.361799",
    "lat": "35.220022",
    "capacity": "25.9",
    "power": "焦作市修武县周庄供电所",
    "county": "国网河南省电力公司修武县供电公司"
  },
  {
    "name": "漯河市舞阳县姜店供电营业厅",
    "account": "4105164395216 ",
    "lng": "113.668924",
    "lat": "33.526654",
    "capacity": "11.55",
    "power": "漯河市舞阳县姜店供电营业厅",
    "county": "国网河南省电力公司舞阳县供电公司"
  },
  {
    "name": "南阳市新野县歪子供电所",
    "account": "4105164408899 ",
    "lng": "112.375624",
    "lat": "32.709822",
    "capacity": "36.9",
    "power": "南阳市新野县歪子供电所",
    "county": "国网河南省电力公司新野县供电公司"
  },
  {
    "name": "鹤壁市浚县善堂供电所",
    "account": "4105164453815 ",
    "lng": "114.68313",
    "lat": "35.756533",
    "capacity": "16.2",
    "power": "鹤壁市浚县善堂供电所",
    "county": "国网河南省电力公司浚县供电公司"
  },
  {
    "name": "郑州市巩义市米河供电所",
    "account": "4105164477183 ",
    "lng": "113.236539",
    "lat": "34.736621",
    "capacity": "10",
    "power": "郑州市巩义市米河供电所",
    "county": "国网河南省电力公司巩义市供电公司"
  },
  {
    "name": "郑州市巩义市鲁庄供电所",
    "account": "4105164482886 ",
    "lng": "112.869989",
    "lat": "34.586422",
    "capacity": "14.58",
    "power": "郑州市巩义市鲁庄供电所",
    "county": "国网河南省电力公司巩义市供电公司"
  },
  {
    "name": "郑州市巩义市夹津口供电所",
    "account": "4105164486093 ",
    "lng": "113.019065",
    "lat": "34.618646",
    "capacity": "24",
    "power": "郑州市巩义市夹津口供电所",
    "county": "国网河南省电力公司巩义市供电公司"
  },
  {
    "name": "南阳市淅川县毛堂供电所",
    "account": "4105164489249 ",
    "lng": "111.381621",
    "lat": "33.217906",
    "capacity": "29.7",
    "power": "南阳市淅川县毛堂供电所",
    "county": "国网河南省电力公司淅川县供电公司"
  },
  {
    "name": "开封市尉氏县中心供电所",
    "account": "4105164526814 ",
    "lng": "114.477501",
    "lat": "34.476244",
    "capacity": "15.12",
    "power": "开封市尉氏县中心供电所",
    "county": "国网河南省电力公司尉氏县供电公司"
  },
  {
    "name": "开封市尉氏县城一所",
    "account": "4105164537241 ",
    "lng": "114.82075",
    "lat": "34.832752",
    "capacity": "22.68",
    "power": "开封市尉氏县城一所",
    "county": "国网河南省电力公司尉氏县供电公司"
  },
  {
    "name": "南阳市淅川九重供电所",
    "account": "4105164568700 ",
    "lng": "111.795982",
    "lat": "32.698577",
    "capacity": "12.1",
    "power": "南阳市淅川九重供电所",
    "county": "国网河南省电力公司淅川县供电公司"
  },
  {
    "name": "南阳市南召县乔端供电所",
    "account": "4105164599331 ",
    "lng": "112.110177",
    "lat": "33.572294",
    "capacity": "61.05",
    "power": "南阳市南召县乔端供电所",
    "county": "国网河南省电力公司南召县供电公司"
  },
  {
    "name": "南阳市西峡五里桥供电所",
    "account": "4105164643285 ",
    "lng": "111.489712",
    "lat": "33.309837",
    "capacity": "20.35",
    "power": "南阳市西峡五里桥供电所",
    "county": "国网河南省电力公司西峡县供电公司"
  },
  {
    "name": "周口市沈丘县城关供电所",
    "account": "4105164984715 ",
    "lng": "115.267185",
    "lat": "33.317404",
    "capacity": "16.5",
    "power": "周口市沈丘县城关供电所",
    "county": "国网河南省电力公司沈丘县供电公司"
  },
  {
    "name": "周口市鹿邑县赵村供电所",
    "account": "4105164991081 ",
    "lng": "115.3497539",
    "lat": "33.870877",
    "capacity": "15.95",
    "power": "周口市鹿邑县赵村供电所",
    "county": "国网河南省电力公司鹿邑县供电公司"
  },
  {
    "name": "安阳市人民大道新办公楼",
    "account": "4105165025859 ",
    "lng": "114.359582",
    "lat": "36.112494",
    "capacity": "21.6",
    "power": "国网安阳供电公司",
    "county": "国网河南省电力公司安阳供电公司"
  },
  {
    "name": "南阳市内乡县城镇供电所",
    "account": "4105165041266 ",
    "lng": "111.83875",
    "lat": "33.044956",
    "capacity": "19.8",
    "power": "南阳市内乡县城镇供电所",
    "county": "国网河南省电力公司内乡县供电公司"
  },
  {
    "name": "周口市鹿邑县邱集供电所",
    "account": "4105165043826 ",
    "lng": "115.294851",
    "lat": "33.886038",
    "capacity": "32.45",
    "power": "周口市鹿邑县邱集供电所",
    "county": "国网河南省电力公司鹿邑县供电公司"
  },
  {
    "name": "周口市鹿邑县郑家集供电所",
    "account": "4105165048759 ",
    "lng": "114.764785",
    "lat": "33.67398",
    "capacity": "28.6",
    "power": "周口市鹿邑县郑家集供电所",
    "county": "国网河南省电力公司鹿邑县供电公司"
  },
  {
    "name": "周口市鹿邑县观堂供电所",
    "account": "4105165050075 ",
    "lng": "115.421491",
    "lat": "33.804397",
    "capacity": "22",
    "power": "周口市鹿邑县观堂供电所",
    "county": "国网河南省电力公司鹿邑县供电公司"
  },
  {
    "name": "南阳市内乡县灌涨镇供电",
    "account": "4105165054240 ",
    "lng": "111.930554",
    "lat": "33.039563",
    "capacity": "14.85",
    "power": "南阳市内乡县灌涨镇供电",
    "county": "国网河南省电力公司淅川县供电公司"
  },
  {
    "name": "安阳市安阳县永和供电所",
    "account": "4105165054918 ",
    "lng": "114.56304",
    "lat": "36.086336",
    "capacity": "16.8",
    "power": "安阳市安阳县永和供电所",
    "county": "国网河南省电力公司安阳县供电公司"
  },
  {
    "name": "开封市尉氏县城三所",
    "account": "4105165057379 ",
    "lng": "114.477501",
    "lat": "34.476244",
    "capacity": "21.6",
    "power": "开封市尉氏县城三所",
    "county": "国网河南省电力公司尉氏县供电公司"
  },
  {
    "name": "周口市鹿邑县电业局办公楼",
    "account": "4105165057861 ",
    "lng": "115.4928099",
    "lat": "33.876096",
    "capacity": "62.15",
    "power": "周口市鹿邑县电业局",
    "county": "国网河南省电力公司鹿邑县供电公司"
  },
  {
    "name": "周口市沈丘县周营供电所",
    "account": "4105165059782 ",
    "lng": "115.216075",
    "lat": "33.306522",
    "capacity": "23.1",
    "power": "周口市沈丘县周营供电所",
    "county": "国网河南省电力公司沈丘县供电公司"
  },
  {
    "name": "周口市沈丘县范营供电所",
    "account": "4105165060441 ",
    "lng": "115.07299",
    "lat": "33.423476",
    "capacity": "17.5",
    "power": "周口市沈丘县范营供电所",
    "county": "国网河南省电力公司沈丘县供电公司"
  },
  {
    "name": "许昌市禹州市苌庄供电所",
    "account": "410516506510 ",
    "lng": "113.33388",
    "lat": "34.322022",
    "capacity": "21.45",
    "power": "许昌市禹州市苌庄供电所",
    "county": "国网河南省电力公司禹州市供电公司"
  },
  {
    "name": "周口市淮阳区郑集供电所",
    "account": "4105165314463 ",
    "lng": "114.754983",
    "lat": "33.6895739",
    "capacity": "13.75",
    "power": "周口市淮阳区郑集供电所",
    "county": "国网周口供电公司"
  },
  {
    "name": "周口市淮阳县冯塘供电所",
    "account": "4105165345140 ",
    "lng": "114.998635",
    "lat": "33.599206",
    "capacity": "13.75",
    "power": "周口市淮阳县冯塘供电所",
    "county": "国网河南省电力公司淮阳县供电公司"
  },
  {
    "name": "安阳市安阳县崔家桥供电所",
    "account": "4105165411470 ",
    "lng": "114.450076",
    "lat": "36.1011233",
    "capacity": "21.6",
    "power": "安阳市安阳县崔家桥供电所",
    "county": "国网河南省电力公司安阳县供电公司"
  },
  {
    "name": "南阳市淅川上集供电所",
    "account": "4105165415892 ",
    "lng": "111.484979",
    "lat": "33.122743",
    "capacity": "14.85",
    "power": "南阳市淅川上集供电所",
    "county": "国网河南省电力公司淅川县供电公司"
  },
  {
    "name": "周口市项城市电业局",
    "account": "4105165416723 ",
    "lng": "114.913661",
    "lat": "33.441374",
    "capacity": "96.8",
    "power": "周口市项城市电业局",
    "county": "国网河南省电力公司项城市供电公司"
  },
  {
    "name": "周口市淮阳区白楼供电所",
    "account": "4105165423187 ",
    "lng": "114.932201",
    "lat": "33.466275",
    "capacity": "16.5",
    "power": "周口市淮阳区白楼供电所",
    "county": "国网周口供电公司"
  },
  {
    "name": "周口市项城市付集电业局",
    "account": "4105165426926 ",
    "lng": "115.013779",
    "lat": "33.204822",
    "capacity": "24.2",
    "power": "周口市项城市付集电业局",
    "county": "国网河南省电力公司项城市供电公司"
  },
  {
    "name": "濮阳市清丰县韩村供电所",
    "account": "4105165428209 ",
    "lng": "115.03043",
    "lat": "35.916179",
    "capacity": "12.96",
    "power": "濮阳市清丰县韩村供电所",
    "county": "国网河南省电力公司清丰县供电公司"
  },
  {
    "name": "南阳市淅川上集供电所",
    "account": "4105165449204 ",
    "lng": "111.49018",
    "lat": "33.120972",
    "capacity": "25.3",
    "power": "南阳市淅川上集供电所",
    "county": "国网河南省电力公司淅川县供电公司"
  },
  {
    "name": "平顶山市叶县城关乡供电所",
    "account": "4105165454037 ",
    "lng": "113.363847",
    "lat": "33.622973",
    "capacity": "28.05",
    "power": "平顶山市叶县城关乡供电所",
    "county": "国网河南省电力公司叶县供电公司"
  },
  {
    "name": "南阳市淅川九重供电所",
    "account": "4105165463107 ",
    "lng": "111.79596",
    "lat": "32.697879",
    "capacity": "15.4",
    "power": "南阳市淅川九重供电所",
    "county": "国网河南省电力公司淅川县供电公司"
  },
  {
    "name": "新乡市延津县司寨供电所",
    "account": "4105165479483 ",
    "lng": "114.376381",
    "lat": "35.204801",
    "capacity": "16.2",
    "power": "新乡市延津县司寨供电所",
    "county": "国网河南省电力公司延津县供电公司"
  },
  {
    "name": "三门峡渑池县陈村供电所",
    "account": "4105165482135 ",
    "lng": "111.66166",
    "lat": "34.82932",
    "capacity": "14.04",
    "power": "三门峡渑池县陈村供电所",
    "county": "国网河南省电力公司渑池县供电公司"
  },
  {
    "name": "南阳市淅川仓房供电所",
    "account": "4105165510470 ",
    "lng": "111.480988",
    "lat": "32.773692",
    "capacity": "22",
    "power": "南阳市淅川仓房供电所",
    "county": "国网河南省电力公司淅川县供电公司"
  },
  {
    "name": "三门峡市渑池县供电公司",
    "account": "4105165512564 ",
    "lng": "111.7592957",
    "lat": "34.76777512",
    "capacity": "7.83",
    "power": "三门峡市渑池县供电公司",
    "county": "国网河南省电力公司渑池县供电公司"
  },
  {
    "name": "郑州市登封东区供电所",
    "account": "4105165513639 ",
    "lng": "113.014314",
    "lat": "34.757319",
    "capacity": "8.64",
    "power": "郑州市登封东区供电所",
    "county": "国网河南省电力公司登封市供电公司"
  },
  {
    "name": "周口市西华县李大庄供电所",
    "account": "4105165518618 ",
    "lng": "114.8182",
    "lat": "33.687548",
    "capacity": "14.85",
    "power": "周口市西华县李大庄供电所",
    "county": "国网河南省电力公司西华县供电公司"
  },
  {
    "name": "周口市西华县西夏厅供电所",
    "account": "4105165541418 ",
    "lng": "114.378311",
    "lat": "33.745405",
    "capacity": "28.6",
    "power": "周口市西华县西夏厅供电所",
    "county": "国网河南省电力公司西华县供电公司"
  },
  {
    "name": "周口市西华县逍遥镇供电所",
    "account": "4105165546370 ",
    "lng": "114.265004",
    "lat": "33.748438",
    "capacity": "27.5",
    "power": "周口市西华县逍遥镇供电所",
    "county": "国网河南省电力公司西华县供电公司"
  },
  {
    "name": "郑州市新郑市千户寨供电所",
    "account": "4105165572762 ",
    "lng": "113.6443436",
    "lat": "34.58297691",
    "capacity": "12.69",
    "power": "郑州市新郑市千户寨供电所",
    "county": "国网河南省电力公司新郑市供电公司"
  },
  {
    "name": "三门峡渑池县天池供电所",
    "account": "4105165595561 ",
    "lng": "111.859002",
    "lat": "34.667662",
    "capacity": "13.5",
    "power": "三门峡渑池县天池供电所",
    "county": "国网河南省电力公司渑池县供电公司"
  },
  {
    "name": "许昌市襄城县供电局",
    "account": "4105165628032 ",
    "lng": "113.491702",
    "lat": "33.848555",
    "capacity": "70.95",
    "power": "许昌市襄城县供电局",
    "county": "国网河南省电力公司襄城县供电公司"
  },
  {
    "name": "许昌市襄城县麦岭供电所",
    "account": "4105165633810 ",
    "lng": "113.643898",
    "lat": "33.775855",
    "capacity": "15.95",
    "power": "许昌市襄城县麦岭供电所",
    "county": "国网河南省电力公司襄城县供电公司"
  },
  {
    "name": "许昌市襄城十里铺供电所",
    "account": "4105165672417 ",
    "lng": "113.438712",
    "lat": "33.88025",
    "capacity": "12.1",
    "power": "许昌市襄城十里铺供电所",
    "county": "国网河南省电力公司襄城县供电公司"
  },
  {
    "name": "许昌市襄城县供电局计量站",
    "account": "4105165673276 ",
    "lng": "113.485709",
    "lat": "33.841583",
    "capacity": "33",
    "power": "国网河南省电力公司襄城县供电公司",
    "county": "国网河南省电力公司襄城县供电公司"
  },
  {
    "name": "许昌市襄城县丁营乡供电所",
    "account": "4105165674237 ",
    "lng": "113.611097",
    "lat": "33.752708",
    "capacity": "14.85",
    "power": "许昌市襄城县丁营乡供电所",
    "county": "国网河南省电力公司襄城县供电公司"
  },
  {
    "name": "驻马店市遂平县城西供电营业厅",
    "account": "4105165708307 ",
    "lng": "114.014995",
    "lat": "33.145231",
    "capacity": "23",
    "power": "驻马店市遂平县城西供电营业厅",
    "county": "国网河南省电力公司遂平县供电公司"
  },
  {
    "name": "商丘市民权县王桥供电所",
    "account": "4105165712704 ",
    "lng": "115.254887",
    "lat": "34.714286",
    "capacity": "19.8",
    "power": "商丘市民权县王桥供电所",
    "county": "国网河南省电力公司民权县供电公司"
  },
  {
    "name": "周口市太康县毛庄镇供电所",
    "account": "4105165724541 ",
    "lng": "114.866605",
    "lat": "34.022419",
    "capacity": "13.75",
    "power": "周口市太康县毛庄镇供电所",
    "county": "国网河南省电力公司太康县供电公司"
  },
  {
    "name": "商丘市民权县阳光大酒店",
    "account": "4105165768882 ",
    "lng": "115.144194",
    "lat": "34.633384",
    "capacity": "72.6",
    "power": "国网河南省电力公司民权县供电公司",
    "county": "国网河南省电力公司民权县供电公司"
  },
  {
    "name": "濮阳市清丰县仙庄供电所",
    "account": "4105165971905 ",
    "lng": "115.303313",
    "lat": "35.953967",
    "capacity": "10.8",
    "power": "濮阳市清丰县仙庄供电所",
    "county": "国网河南省电力公司清丰县供电公司"
  },
  {
    "name": "开封市通许县冯庄供电所",
    "account": "4105166060673 ",
    "lng": "114.469376",
    "lat": "34.535791",
    "capacity": "18.36",
    "power": "开封市通许县冯庄供电所",
    "county": "国网河南省电力公司尉氏县供电公司"
  },
  {
    "name": "开封市通许县长智供电所",
    "account": "4105166080226 ",
    "lng": "114.569283",
    "lat": "34.471316",
    "capacity": "18.9",
    "power": "开封市通许县长智供电所",
    "county": "国网河南省电力公司通许县供电公司"
  },
  {
    "name": "开封市通许县厉庄供电所",
    "account": "4105166080718 ",
    "lng": "114.472094",
    "lat": "34.446222",
    "capacity": "12.96",
    "power": "开封市通许县厉庄供电所",
    "county": "国网河南省电力公司通许县供电公司"
  },
  {
    "name": "开封市通许县竖岗供电所",
    "account": "4105166081157 ",
    "lng": "114.344395",
    "lat": "34.438508",
    "capacity": "16.2",
    "power": "开封市通许县竖岗供电所",
    "county": "国网河南省电力公司通许县供电公司"
  },
  {
    "name": "洛阳市洛宁县杨坡供电所",
    "account": "4105166081593 ",
    "lng": "111.737209",
    "lat": "34.52541",
    "capacity": "29",
    "power": "洛阳市洛宁县杨坡供电所",
    "county": "国网河南省电力公司洛宁县供电公司"
  },
  {
    "name": "洛阳市孟津县白鹤供电所",
    "account": "4105166107033 ",
    "lng": "112.562892",
    "lat": "34.864879",
    "capacity": "10.8",
    "power": "洛阳市孟津县白鹤供电所",
    "county": "国网河南省电力公司孟津县供电公司"
  },
  {
    "name": "许昌市长葛市福尔胡供电所",
    "account": "4105166108498 ",
    "lng": "113.775355",
    "lat": "34.298322",
    "capacity": "18.15",
    "power": "许昌市长葛市福尔胡供电所",
    "county": "国网河南省电力公司长葛市供电公司"
  },
  {
    "name": "洛阳市孟津县检修工区",
    "account": "4105166108603 ",
    "lng": "112.444562",
    "lat": "34.836494",
    "capacity": "27",
    "power": "国网河南省电力公司孟津县供电公司",
    "county": "国网河南省电力公司孟津县供电公司"
  },
  {
    "name": "洛阳市孟津县小浪底供电所",
    "account": "4105166109882 ",
    "lng": "112.35773",
    "lat": "34.868604",
    "capacity": "10.8",
    "power": "洛阳市孟津县小浪底供电所",
    "county": "国网河南省电力公司孟津县供电公司"
  },
  {
    "name": "开封市杞县于镇供电所",
    "account": "4105165682274 ",
    "lng": "114.744332",
    "lat": "34.371488",
    "capacity": "12.96",
    "power": "开封市杞县于镇供电所",
    "county": "国网河南省电力公司杞县供电公司"
  },
  {
    "name": "郑州市中牟县刘集供电所",
    "account": "4105160678380 ",
    "lng": "113.933565",
    "lat": "34.809456",
    "capacity": "12.96",
    "power": "郑州市中牟县刘集供电所",
    "county": "国网河南省电力公司中牟县供电公司"
  },
  {
    "name": "新乡市辉县赵固供电所",
    "account": "4105161454059 ",
    "lng": "113.688066",
    "lat": "35.446582",
    "capacity": "20",
    "power": "新乡市辉县赵固供电所",
    "county": "国网河南省电力公司辉县供电公司"
  },
  {
    "name": "新乡市辉县薄壁供电所",
    "account": "4105161456518 ",
    "lng": "113.529301",
    "lat": "35.453688",
    "capacity": "15.12",
    "power": "新乡市辉县薄壁供电所",
    "county": "国网河南省电力公司辉县供电公司"
  },
  {
    "name": "新乡市辉县百泉供电所",
    "account": "4105161574272 ",
    "lng": "113.795698",
    "lat": "35.488858",
    "capacity": "15.12",
    "power": "新乡市辉县百泉供电所",
    "county": "国网河南省电力公司辉县供电公司"
  },
  {
    "name": "新乡市辉县峪河供电所",
    "account": "4105161601891 ",
    "lng": "113.608446",
    "lat": "35.365947",
    "capacity": "13.23",
    "power": "新乡市辉县峪河供电所",
    "county": "国网河南省电力公司辉县供电公司"
  },
  {
    "name": "新乡辉县吴村供电所",
    "account": "4105161606144 ",
    "lng": "113.5209",
    "lat": "35.354083",
    "capacity": "17.82",
    "power": "新乡辉县吴村供电所",
    "county": "国网河南省电力公司辉县供电公司"
  },
  {
    "name": "济源市区汤帝路供电所",
    "account": "4105161788125 ",
    "lng": "112.591424",
    "lat": "35.093809",
    "capacity": "23.76",
    "power": "济源市区汤帝路供电所",
    "county": "国网济源供电公司"
  },
  {
    "name": "济源市区轵城供电所",
    "account": "4105161923175 ",
    "lng": "112.616833",
    "lat": "35.046408",
    "capacity": "32.4",
    "power": "济源市区轵城供电所",
    "county": "国网济源供电公司"
  },
  {
    "name": "新乡市长垣县芦岗供电所",
    "account": "4105163568972 ",
    "lng": "114.829899",
    "lat": "35.168575",
    "capacity": "15.66",
    "power": "新乡市长垣县芦岗供电所",
    "county": "国网河南省电力公司长垣县供电公司"
  },
  {
    "name": "新乡市卫辉市太公泉供电所",
    "account": "4105163614499 ",
    "lng": "114.014535",
    "lat": "35.519534",
    "capacity": "13.5",
    "power": "新乡市卫辉市太公泉供电所",
    "county": "国网河南省电力公司卫辉市供电公司"
  },
  {
    "name": "漯河市区老窝乡供电所",
    "account": "4105163703658 ",
    "lng": "114.217625",
    "lat": "33.691335",
    "capacity": "34.65",
    "power": "漯河市区老窝乡供电所",
    "county": "国网漯河供电公司"
  },
  {
    "name": "南阳市宛城区高庙供电所",
    "account": "4105163740611 ",
    "lng": "112.792843",
    "lat": "32.965927",
    "capacity": "20.35",
    "power": "南阳市宛城区高庙供电所",
    "county": "国网河南省电力公司宛城供电公司"
  },
  {
    "name": "南阳市方城县小史店供电所",
    "account": "4105163839245 ",
    "lng": "113.33123",
    "lat": "33.158582",
    "capacity": "22",
    "power": "南阳市方城县小史店供电所",
    "county": "国网河南省电力公司方城县供电公司"
  },
  {
    "name": "漯河市临颍县巨陵供电所",
    "account": "4105164051875 ",
    "lng": "113.974317",
    "lat": "33.864175",
    "capacity": "27.5",
    "power": "漯河市临颍县巨陵供电所",
    "county": "国网漯河供电公司"
  },
  {
    "name": "洛阳市新安县李村供电所",
    "account": "4105164105761 ",
    "lng": "112.146864",
    "lat": "34.685333",
    "capacity": "10.8",
    "power": "洛阳市新安县李村供电所",
    "county": "国网河南省电力公司新安县供电公司"
  },
  {
    "name": "开封市兰考县闫楼供电所",
    "account": "4105164118673 ",
    "lng": "115.009929",
    "lat": "34.905621",
    "capacity": "10.8",
    "power": "开封市兰考县闫楼供电所",
    "county": "国网河南省电力公司兰考县供电公司"
  },
  {
    "name": "商丘市虞城县站集供电所",
    "account": "4105164196486 ",
    "lng": "115.864537",
    "lat": "34.238868",
    "capacity": "13.2",
    "power": "商丘市虞城县站集供电所",
    "county": "国网河南省电力公司虞城县供电公司"
  },
  {
    "name": "开封市兰考县红庙供电所",
    "account": "4105164207539 ",
    "lng": "114.936534",
    "lat": "34.86157",
    "capacity": "10.8",
    "power": "开封市兰考县红庙供电所",
    "county": "国网河南省电力公司兰考县供电公司"
  },
  {
    "name": "商丘市睢阳区新城供电所",
    "account": "4105164414319 ",
    "lng": "115.661496",
    "lat": "34.402454",
    "capacity": "14.85",
    "power": "商丘市睢阳区新城供电所",
    "county": "国网商丘供电公司"
  },
  {
    "name": "平顶山市汝州县纸坊供电所",
    "account": "4105164440798 ",
    "lng": "112.975725",
    "lat": "34.106819",
    "capacity": "18.15",
    "power": "平顶山市汝州县纸坊供电所",
    "county": "国网河南省电力公司汝州县供电公司"
  },
  {
    "name": "平顶山市汝州县王寨供电所",
    "account": "4105164473077 ",
    "lng": "112.758003",
    "lat": "34.130048",
    "capacity": "19.25",
    "power": "平顶山市汝州县王寨供电所",
    "county": "国网河南省电力公司汝州县供电公司"
  },
  {
    "name": "平顶山市汝州市西环供电所",
    "account": "4105164509185 ",
    "lng": "112.839394",
    "lat": "34.18448",
    "capacity": "119.35",
    "power": "平顶山市汝州市西环供电所",
    "county": "国网河南省电力公司汝州县供电公司"
  },
  {
    "name": "商丘市睢阳区北海路供电所",
    "account": "4105164600178 ",
    "lng": "115.647157",
    "lat": "34.394301",
    "capacity": "36.3",
    "power": "商丘市睢阳区北海路供电所",
    "county": "国网商丘供电公司"
  },
  {
    "name": "洛阳市汝阳县刘店供电所",
    "account": "4105164666970 ",
    "lng": "112.564076",
    "lat": "34.087758",
    "capacity": "18.36",
    "power": "洛阳市汝阳县刘店供电所",
    "county": "国网河南省电力公司汝阳县供电公司"
  },
  {
    "name": "南阳市镇平县张林供电所",
    "account": "4105164675835 ",
    "lng": "112.158822",
    "lat": "32.931929",
    "capacity": "18.7",
    "power": "南阳市镇平县张林供电所",
    "county": "国网河南省电力公司镇平县供电公司"
  },
  {
    "name": "商丘市永城县芒山供电所",
    "account": "4105164693059 ",
    "lng": "116.547756",
    "lat": "34.208219",
    "capacity": "31",
    "power": "商丘市永城县芒山供电所",
    "county": "国网河南省电力公司永城县供电公司"
  },
  {
    "name": "商丘市永城县条河供电所",
    "account": "4105164725790 ",
    "lng": "116.527321",
    "lat": "34.26926",
    "capacity": "26.5",
    "power": "商丘市永城县条河供电所",
    "county": "国网河南省电力公司永城县供电公司"
  },
  {
    "name": "商丘市永城县陈官庄供电所",
    "account": "4105164726748 ",
    "lng": "116.588431",
    "lat": "34.006349",
    "capacity": "10",
    "power": "商丘市永城县陈官庄供电所",
    "county": "国网河南省电力公司永城县供电公司"
  },
  {
    "name": "洛阳市新安县石井供电所",
    "account": "4105164840787 ",
    "lng": "112.100379",
    "lat": "34.97682",
    "capacity": "10.8",
    "power": "洛阳市新安县石井供电所",
    "county": "国网河南省电力公司新安县供电公司"
  },
  {
    "name": "信阳市息县杨店乡供电所",
    "account": "4105164918462 ",
    "lng": "114.82023",
    "lat": "32.435977",
    "capacity": "17.05",
    "power": "信阳市息县杨店乡供电所",
    "county": "国网河南省电力公司息县供电公司"
  },
  {
    "name": "南阳市镇平县柳泉铺供电所",
    "account": "4105164945062 ",
    "lng": "112.341519",
    "lat": "33.053605",
    "capacity": "22.55",
    "power": "南阳市镇平县柳泉铺供电所",
    "county": "国网河南省电力公司镇平县供电公司"
  },
  {
    "name": "洛阳市宜阳县石陵供电所",
    "account": "4105164963286 ",
    "lng": "112.111791",
    "lat": "34.625353",
    "capacity": "11",
    "power": "洛阳市宜阳县石陵供电所",
    "county": "国网河南省电力公司宜阳县供电公司"
  },
  {
    "name": "安阳市安阳县电业局",
    "account": "4105165008247 ",
    "lng": "114.37094",
    "lat": "36.064835",
    "capacity": "10.8",
    "power": "安阳市安阳县电业局",
    "county": "国网河南省电力公司安阳县供电公司"
  },
  {
    "name": "南阳市镇平县贾宋供电所",
    "account": "4105165034307 ",
    "lng": "112.08027",
    "lat": "32.945888",
    "capacity": "20.9",
    "power": "南阳市镇平县贾宋供电所",
    "county": "国网河南省电力公司镇平县供电公司"
  },
  {
    "name": "焦作市武陟县供电公司办公楼",
    "account": "4105165048560 ",
    "lng": "113.406199",
    "lat": "35.109929",
    "capacity": "99.9",
    "power": "焦作市武陟县供电公司",
    "county": "国网河南省电力公司武陟县供电公司"
  },
  {
    "name": "焦作市武陟县三阳供电所",
    "account": "4105165051658 ",
    "lng": "113.253492",
    "lat": "35.055978",
    "capacity": "10.8",
    "power": "焦作市武陟县三阳供电所",
    "county": "国网河南省电力公司武陟县供电公司"
  },
  {
    "name": "焦作市武陟县嘉应观供电所",
    "account": "4105165053742 ",
    "lng": "113.513096",
    "lat": "35.04266",
    "capacity": "12.96",
    "power": "焦作市武陟县嘉应观供电所",
    "county": "国网河南省电力公司武陟县供电公司"
  },
  {
    "name": "焦作市武陟县龙源供电所",
    "account": "4105165055588 ",
    "lng": "113.427303",
    "lat": "35.083406",
    "capacity": "21.6",
    "power": "焦作市武陟县龙源供电所",
    "county": "国网河南省电力公司武陟县供电公司"
  },
  {
    "name": "新乡市卫辉市安都供电所",
    "account": "4105165138386 ",
    "lng": "114.068775",
    "lat": "35.499607",
    "capacity": "11.88",
    "power": "新乡市卫辉市安都供电所",
    "county": "国网河南省电力公司卫辉市供电公司"
  },
  {
    "name": "新乡市卫辉市李元屯供电所",
    "account": "4105165142347 ",
    "lng": "114.238016",
    "lat": "35.426025",
    "capacity": "12.96",
    "power": "新乡市卫辉市李元屯供电所",
    "county": "国网河南省电力公司卫辉市供电公司"
  },
  {
    "name": "新乡市卫辉市孙杏供电所",
    "account": "4105165142376 ",
    "lng": "114.000071",
    "lat": "35.359765",
    "capacity": "34.02",
    "power": "新乡市卫辉市孙杏供电所",
    "county": "国网河南省电力公司卫辉市供电公司"
  },
  {
    "name": "南阳市桐柏县月河镇供电所",
    "account": "4105165195123 ",
    "lng": "113.544576",
    "lat": "32.353886",
    "capacity": "20.9",
    "power": "南阳市桐柏县月河镇供电所",
    "county": "国网河南省电力公司桐柏县供电公司"
  },
  {
    "name": "许昌市建安区河街乡供电所",
    "account": "4105165276710 ",
    "lng": "113.777528",
    "lat": "34.071026",
    "capacity": "14",
    "power": "许昌市建安区河街乡供电所",
    "county": "国网许昌供电公司"
  },
  {
    "name": "许昌市建安区尚集镇供电所",
    "account": "4105165276781 ",
    "lng": "113.83661",
    "lat": "34.116187",
    "capacity": "42",
    "power": "许昌市建安区尚集镇供电所",
    "county": "国网许昌供电公司"
  },
  {
    "name": "郑州电力高等专科学校",
    "account": "4105165280843 ",
    "lng": "113.903872",
    "lat": "34.795461",
    "capacity": "1277.1",
    "power": "郑州电力高等专科学校",
    "county": "国网郑州供电公司郑东新区供电部"
  },
  {
    "name": "许昌市建安区小召供电所",
    "account": "4105165289433 ",
    "lng": "113.824055",
    "lat": "34.1166489",
    "capacity": "29",
    "power": "许昌市建安区小召供电所",
    "county": "国网许昌供电公司"
  },
  {
    "name": "平顶山市供电局郏县办公楼",
    "account": "4105165289488 ",
    "lng": "113.240301",
    "lat": "33.969972",
    "capacity": "66",
    "power": "国网河南省电力公司郏县供电公司",
    "county": "国网河南省电力公司郏县供电公司"
  },
  {
    "name": "许昌市建安区将官池供电所",
    "account": "4105165289651 ",
    "lng": "113.831491",
    "lat": "33.992118",
    "capacity": "20",
    "power": "许昌市建安区将官池供电所",
    "county": "国网许昌供电公司"
  },
  {
    "name": "南阳市新野县沙堰供电所",
    "account": "4105165306543 ",
    "lng": "112.467638",
    "lat": "32.610465",
    "capacity": "20.9",
    "power": "南阳市新野县沙堰供电所",
    "county": "国网河南省电力公司新野县供电公司"
  },
  {
    "name": "洛阳市栾川县潭头供电所",
    "account": "4105165307504 ",
    "lng": "111.759791",
    "lat": "34.029946",
    "capacity": "25.65",
    "power": "洛阳市栾川县潭头供电所",
    "county": "国网河南省电力公司栾川县供电公司"
  },
  {
    "name": "周口市扶沟县电业局工会楼",
    "account": "4105165309669 ",
    "lng": "114.394933",
    "lat": "34.067101",
    "capacity": "12.1",
    "power": "周口市扶沟县电业局",
    "county": "国网河南省电力公司扶沟县供电公司"
  },
  {
    "name": "南阳市新野县新甸铺供电所",
    "account": "4105165320130 ",
    "lng": "112.318585",
    "lat": "32.418985",
    "capacity": "26.95",
    "power": "南阳市新野县新甸铺供电所",
    "county": "国网河南省电力公司新野县供电公司"
  },
  {
    "name": "南阳市南召县皇后乡供电所",
    "account": "4105165329645 ",
    "lng": "112.770172",
    "lat": "33.481392",
    "capacity": "43.45",
    "power": "南阳市南召县皇后乡供电所",
    "county": "国网河南省电力公司南召县供电公司"
  },
  {
    "name": "新乡市原阳县太平镇供电所",
    "account": "4105165331668 ",
    "lng": "114.110354",
    "lat": "35.039184",
    "capacity": "16.7",
    "power": "新乡市原阳县太平镇供电所",
    "county": "国网河南省电力公司卫辉市供电公司"
  },
  {
    "name": "新乡市原阳县桥北供电所",
    "account": "4105165332313 ",
    "lng": "113.694899",
    "lat": "34.973337",
    "capacity": "16.7",
    "power": "新乡市原阳县桥北供电所",
    "county": "国网河南省电力公司原阳县供电公司"
  },
  {
    "name": "商丘市民权县顺河镇供电所",
    "account": "4105165409910 ",
    "lng": "115.404499",
    "lat": "34.772012",
    "capacity": "45.65",
    "power": "商丘市民权县顺河镇供电所",
    "county": "国网河南省电力公司民权县供电公司"
  },
  {
    "name": "周口市郸城县城郊供电所",
    "account": "4105165445286 ",
    "lng": "115.216554",
    "lat": "33.664919",
    "capacity": "33",
    "power": "周口市郸城县城郊供电所",
    "county": "国网河南省电力公司郸城县供电公司"
  },
  {
    "name": "周口市淮阳县黄集供电所",
    "account": "4105165454141 ",
    "lng": "115.031792",
    "lat": "33.800474",
    "capacity": "13.2",
    "power": "周口市淮阳县黄集供电所",
    "county": "国网河南省电力公司淮阳县供电公司"
  },
  {
    "name": "南阳市镇平县城区供电所",
    "account": "4105165460065 ",
    "lng": "112.232545",
    "lat": "33.036136",
    "capacity": "23.1",
    "power": "南阳市镇平县城区供电所",
    "county": "国网河南省电力公司镇平县供电公司"
  },
  {
    "name": "郑州市登封市大金店镇供电所",
    "account": "4105165478464 ",
    "lng": "112.986413",
    "lat": "34.379589",
    "capacity": "12.96",
    "power": "郑州市登封市大金店镇供电所",
    "county": "国网河南省电力公司登封市供电公司"
  },
  {
    "name": "商丘市虞城县利民镇供电所",
    "account": "4105165490332 ",
    "lng": "115.939542",
    "lat": "34.530303",
    "capacity": "16.5",
    "power": "商丘市虞城县利民镇供电所",
    "county": "国网河南省电力公司虞城县供电公司"
  },
  {
    "name": "信阳市光山县十里供电所",
    "account": "4105165493504 ",
    "lng": "114.939248",
    "lat": "32.047401",
    "capacity": "17.6",
    "power": "信阳市光山县十里供电所",
    "county": "国网河南省电力公司光山县供电公司"
  },
  {
    "name": "三门峡市渑池县仰韶供电所",
    "account": "4105165503683 ",
    "lng": "111.811168",
    "lat": "34.793701",
    "capacity": "23.22",
    "power": "三门峡市渑池县仰韶供电所",
    "county": "国网河南省电力公司渑池县供电公司"
  },
  {
    "name": "鹤壁市浚县供电公司",
    "account": "4105165506480 ",
    "lng": "114.579858",
    "lat": "35.684655",
    "capacity": "51.84",
    "power": "鹤壁市浚县供电公司",
    "county": "国网河南省电力公司浚县供电公司"
  },
  {
    "name": "平顶山市叶县邓李供电所",
    "account": "4105165554681 ",
    "lng": "113.514542",
    "lat": "33.680604",
    "capacity": "19.8",
    "power": "平顶山市叶县邓李供电所",
    "county": "国网河南省电力公司叶县供电公司"
  },
  {
    "name": "三门峡渑池县仁村供电所",
    "account": "4105165563520 ",
    "lng": "111.917041",
    "lat": "34.807864",
    "capacity": "16.2",
    "power": "三门峡渑池县仁村供电所",
    "county": "国网河南省电力公司渑池县供电公司"
  },
  {
    "name": "郑州市登封市君召乡供电所",
    "account": "4105165573459 ",
    "lng": "112.827874",
    "lat": "34.422404",
    "capacity": "27",
    "power": "郑州市登封市君召乡供电所",
    "county": "国网河南省电力公司登封市供电公司"
  },
  {
    "name": "商丘市供电公司",
    "account": "4105165608418 ",
    "lng": "115.649583",
    "lat": "34.430328",
    "capacity": "85.8",
    "power": "商丘市供电公司",
    "county": "国网商丘供电公司"
  },
  {
    "name": "焦作市沁阳市区供电所",
    "account": "4105165611997 ",
    "lng": "112.959909",
    "lat": "35.095464",
    "capacity": "36.72",
    "power": "焦作市沁阳市区供电所",
    "county": "国网河南省电力公司沁阳市供电公司"
  },
  {
    "name": "驻马店市驿城区罗店乡供电所",
    "account": "4105165614417 ",
    "lng": "114.140118",
    "lat": "33.074272",
    "capacity": "39.6",
    "power": "驻马店市驿城区罗店乡供电所",
    "county": "国网驻马店供电公司"
  },
  {
    "name": "郑州市荥阳市高山镇供电所",
    "account": "4105165633520 ",
    "lng": "113.221953",
    "lat": "34.796818",
    "capacity": "10.8",
    "power": "郑州市荥阳市高山镇供电所",
    "county": "国网河南省电力公司荥阳市供电公司"
  },
  {
    "name": "郑州市荥阳市京城供电所",
    "account": "4105165659751 ",
    "lng": "113.221953",
    "lat": "34.796818",
    "capacity": "22",
    "power": "郑州市荥阳市京城供电所",
    "county": "国网河南省电力公司荥阳市供电公司"
  },
  {
    "name": "开封市杞县阳堌供电所",
    "account": "4105165678659 ",
    "lng": "114.81222",
    "lat": "34.706808",
    "capacity": "10.8",
    "power": "开封市杞县阳堌供电所",
    "county": "国网河南省电力公司杞县供电公司"
  },
  {
    "name": "洛阳市宜阳县石村供电所",
    "account": "4105165683219 ",
    "lng": "111.841905",
    "lat": "34.548094",
    "capacity": "10.8",
    "power": "洛阳市宜阳县石村供电所",
    "county": "国网河南省电力公司宜阳县供电公司"
  },
  {
    "name": "周口市西华县东王营供电所",
    "account": "4105165693526 ",
    "lng": "114.602639",
    "lat": "33.722877",
    "capacity": "15.95",
    "power": "周口市西华县东王营供电所",
    "county": "国网河南省电力公司西华县供电公司"
  },
  {
    "name": "信阳市浉河区东双河供电所",
    "account": "4105165792409 ",
    "lng": "114.106307",
    "lat": "32.032124",
    "capacity": "45.1",
    "power": "信阳市浉河区东双河供电所",
    "county": "国网信阳供电公司"
  },
  {
    "name": "濮阳市台前县侯庙供电所",
    "account": "4105165807613 ",
    "lng": "115.771261",
    "lat": "35.932158",
    "capacity": "21.6",
    "power": "濮阳市台前县侯庙供电所",
    "county": "国网河南省电力公司台前县供电公司"
  },
  {
    "name": "驻马店市新蔡县杨庄户供电所",
    "account": "4105165832653 ",
    "lng": "115.151948",
    "lat": "32.754363",
    "capacity": "15",
    "power": "驻马店市新蔡县杨庄户供电所",
    "county": "国网河南省电力公司新蔡县供电公司"
  },
  {
    "name": "洛阳市区吉利供电所",
    "account": "4105165910922 ",
    "lng": "112.621667",
    "lat": "34.905747",
    "capacity": "21.06",
    "power": "洛阳市区吉利供电所",
    "county": "国网洛阳供电公司"
  },
  {
    "name": "洛阳市嵩县车村供电所",
    "account": "4105165940361 ",
    "lng": "112.128751",
    "lat": "33.804263",
    "capacity": "12.96",
    "power": "洛阳市嵩县车村供电所",
    "county": "国网河南省电力公司嵩县供电公司"
  },
  {
    "name": "洛阳市嵩县白河供电所",
    "account": "4105165941827 ",
    "lng": "111.956491",
    "lat": "33.639577",
    "capacity": "8.64",
    "power": "洛阳市嵩县白河供电所",
    "county": "国网河南省电力公司嵩县供电公司"
  },
  {
    "name": "洛阳市嵩县库区供电所",
    "account": "4105165942413 ",
    "lng": "112.142698",
    "lat": "34.191897",
    "capacity": "8.1",
    "power": "洛阳市嵩县库区供电所",
    "county": "国网河南省电力公司嵩县供电公司"
  },
  {
    "name": "洛阳市嵩县木植街供电所",
    "account": "4105165942787 ",
    "lng": "112.176707",
    "lat": "33.964513",
    "capacity": "12.42",
    "power": "洛阳市嵩县木植街供电所",
    "county": "国网河南省电力公司嵩县供电公司"
  },
  {
    "name": "洛阳市嵩县田湖供电所",
    "account": "4105165944291 ",
    "lng": "112.178684",
    "lat": "34.298266",
    "capacity": "20.25",
    "power": "洛阳市嵩县田湖供电所",
    "county": "国网河南省电力公司嵩县供电公司"
  },
  {
    "name": "洛阳市嵩县旧县供电所",
    "account": "4105165945340 ",
    "lng": "111.866503",
    "lat": "34.053037",
    "capacity": "12.96",
    "power": "洛阳市嵩县旧县供电所",
    "county": "国网河南省电力公司嵩县供电公司"
  },
  {
    "name": "驻马店市正阳县永兴供电所",
    "account": "4105165949876 ",
    "lng": "114.562573",
    "lat": "32.481128",
    "capacity": "22.5",
    "power": "驻马店市正阳县永兴供电所",
    "county": "国网河南省电力公司正阳县供电公司"
  },
  {
    "name": "驻马店市正阳县王勿桥供电所",
    "account": "4105165955312 ",
    "lng": "114.629529",
    "lat": "32.553991",
    "capacity": "25.3",
    "power": "驻马店市正阳县王勿桥供电所",
    "county": "国网河南省电力公司正阳县供电公司"
  },
  {
    "name": "驻马店市正阳县新阮店供电所",
    "account": "4105165955745 ",
    "lng": "114.533356",
    "lat": "32.637359",
    "capacity": "12.1",
    "power": "驻马店市正阳县新阮店供电所",
    "county": "国网河南省电力公司正阳县供电公司"
  },
  {
    "name": "安阳市汤阴县任固供电所",
    "account": "4105166055244 ",
    "lng": "114.630959",
    "lat": "35.96397",
    "capacity": "20.52",
    "power": "安阳市汤阴县任固供电所",
    "county": "国网河南省电力公司汤阴县供电公司"
  },
  {
    "name": "洛阳市嵩县德亭供电所",
    "account": "4105166092920 ",
    "lng": "111.932691",
    "lat": "34.145263",
    "capacity": "29.16",
    "power": "洛阳市嵩县德亭供电所",
    "county": "国网河南省电力公司嵩县供电公司"
  },
  {
    "name": "洛阳市汝阳县大安镇供电所",
    "account": "4105166094623 ",
    "lng": "112.574504",
    "lat": "34.324045",
    "capacity": "11.34",
    "power": "洛阳市汝阳县大安镇供电所",
    "county": "国网河南省电力公司汝阳县供电公司"
  },
  {
    "name": "驻马店市平舆县庙湾供电所",
    "account": "4105166094779 ",
    "lng": "114.695005",
    "lat": "33.07933",
    "capacity": "12.1",
    "power": "驻马店市平舆县庙湾供电所",
    "county": "国网河南省电力公司平舆县供电公司"
  },
  {
    "name": "驻马店市平舆县阳城乡供电所",
    "account": "4105166094795 ",
    "lng": "114.553734",
    "lat": "33.099895",
    "capacity": "29.15",
    "power": "驻马店市平舆县阳城乡供电所",
    "county": "国网河南省电力公司平舆县供电公司"
  },
  {
    "name": "洛阳市偃师市山化供电所",
    "account": "4105166095105 ",
    "lng": "112.872498",
    "lat": "34.721043",
    "capacity": "10.8",
    "power": "洛阳市偃师市山化供电所",
    "county": "国网河南省电力公司偃师市供电公司"
  },
  {
    "name": "信阳市息县夏庄乡供电所",
    "account": "4105166095163 ",
    "lng": "115.018509",
    "lat": "32.396143",
    "capacity": "22",
    "power": "信阳市息县夏庄乡供电所",
    "county": "国网河南省电力公司息县供电公司"
  },
  {
    "name": "洛阳市伊川县白元供电所",
    "account": "4105166095323 ",
    "lng": "112.420983",
    "lat": "34.364284",
    "capacity": "17.82",
    "power": "洛阳市伊川县白元供电所",
    "county": "国网河南省电力公司伊川县供电公司"
  },
  {
    "name": "洛阳市偃师市佃庄供电所",
    "account": "4105166095394 ",
    "lng": "112.626053",
    "lat": "34.680122",
    "capacity": "16.2",
    "power": "洛阳市偃师市佃庄供电所",
    "county": "国网河南省电力公司偃师市供电公司"
  },
  {
    "name": "洛阳市偃师市顾县供电所",
    "account": "4105166095482 ",
    "lng": "112.788651",
    "lat": "34.665157",
    "capacity": "16.2",
    "power": "洛阳市偃师市顾县供电所",
    "county": "国网河南省电力公司偃师市供电公司"
  },
  {
    "name": "洛阳市偃师市缑氏镇供电所",
    "account": "4105166095509 ",
    "lng": "112.791447",
    "lat": "34.60982",
    "capacity": "13.5",
    "power": "洛阳市偃师市缑氏镇供电所",
    "county": "国网河南省电力公司偃师市供电公司"
  },
  {
    "name": "洛阳市偃师市府店供电所",
    "account": "4105166095596 ",
    "lng": "112.8638",
    "lat": "34.578779",
    "capacity": "12.96",
    "power": "洛阳市偃师市府店供电所",
    "county": "国网河南省电力公司偃师市供电公司"
  },
  {
    "name": "洛阳市偃师市城关供电所",
    "account": "4105166095802 ",
    "lng": "112.809537",
    "lat": "34.730564",
    "capacity": "10.8",
    "power": "洛阳市偃师市城关供电所",
    "county": "国网河南省电力公司偃师市供电公司"
  },
  {
    "name": "洛阳市偃师市首阳山供电所",
    "account": "4105166095828 ",
    "lng": "112.716411",
    "lat": "34.731054",
    "capacity": "16.2",
    "power": "洛阳市偃师市首阳山供电所",
    "county": "国网河南省电力公司偃师市供电公司"
  },
  {
    "name": "洛阳市偃师市李村供电所",
    "account": "4105166095831 ",
    "lng": "112.595454",
    "lat": "34.603805",
    "capacity": "16.2",
    "power": "洛阳市偃师市李村供电所",
    "county": "国网河南省电力公司偃师市供电公司"
  },
  {
    "name": "洛阳市宜阳县张坞供电所",
    "account": "4105166099703 ",
    "lng": "111.836206",
    "lat": "34.429194",
    "capacity": "21.6",
    "power": "洛阳市宜阳县张坞供电所",
    "county": "国网河南省电力公司宜阳县供电公司"
  },
  {
    "name": "驻马店市上蔡县塔桥供电所",
    "account": "4105209569310 ",
    "lng": "114.457741",
    "lat": "33.283647",
    "capacity": "94.05",
    "power": "驻马店市上蔡县塔桥供电所",
    "county": "国网河南省电力公司上蔡县供电公司"
  },
  {
    "name": "信阳市潢川县供电局办公大楼",
    "account": "4105165599589 ",
    "lng": "115.052073",
    "lat": "32.159334",
    "capacity": "31.9",
    "power": "信阳市潢川县供电局",
    "county": "国网河南省电力公司潢川县供电公司"
  },
  {
    "name": "南阳市桐柏县供电所",
    "account": "4105165605536 ",
    "lng": "113.416294",
    "lat": "32.379333",
    "capacity": "32.45",
    "power": "南阳市桐柏县供电所",
    "county": "国网河南省电力公司桐柏县供电公司"
  },
  {
    "name": "平顶山市叶县常村供电营业厅",
    "account": "4105165609701 ",
    "lng": "113.14566",
    "lat": "33.533741",
    "capacity": "14.85",
    "power": "平顶山市叶县常村供电营业厅",
    "county": "国网河南省电力公司叶县供电公司"
  },
  {
    "name": "周口市商水县老供电局",
    "account": "4105165618190 ",
    "lng": "114.625909",
    "lat": "33.569545",
    "capacity": "36.3",
    "power": "周口市商水县老供电局",
    "county": "国网河南省电力公司商水县供电公司"
  },
  {
    "name": "信阳市平桥区洋河供电所",
    "account": "4105165658761 ",
    "lng": "114.204986",
    "lat": "32.253",
    "capacity": "22",
    "power": "信阳市平桥区洋河供电所",
    "county": "国网信阳供电公司"
  },
  {
    "name": "郑州市新密市超化供电所",
    "account": "4105164147947 ",
    "lng": "113.399499",
    "lat": "34.464204",
    "capacity": "26",
    "power": "郑州市新密市超化供电所",
    "county": "国网河南省电力公司新密市供电公司"
  },
  {
    "name": "周口市黄泛区供电公司Ⅰ（办公楼）",
    "account": "4105165846568 ",
    "lng": "114.42897",
    "lat": "33.755563",
    "capacity": "20.9",
    "power": "周口市黄泛区供电公司",
    "county": "国网周口供电公司"
  },
  {
    "name": "（车库）",
    "account": "4105165848841 ",
    "lng": "114.42897",
    "lat": "33.755563",
    "capacity": "40.7",
    "power": "周口市黄泛区供电公司",
    "county": "国网周口供电公司"
  },
  {
    "name": "周口市黄泛区五分厂",
    "account": "4105165856211 ",
    "lng": "114.36224",
    "lat": "34.158294",
    "capacity": "27.5",
    "power": "国网河南省电力公司黄泛区供电公司",
    "county": "国网周口供电公司"
  },
  {
    "name": "郑州市区花园口供电所",
    "account": "4105255916117 ",
    "lng": "113.637682",
    "lat": "34.869642",
    "capacity": "19.25",
    "power": "郑州市区花园口供电所",
    "county": "国网郑州供电公司"
  },
  {
    "name": "郑州市港区龙王供电所",
    "account": "4105259604652 ",
    "lng": "113.819886",
    "lat": "34.460642",
    "capacity": "5.5",
    "power": "郑州市港区龙王供电所",
    "county": "国网郑州供电公司"
  },
  {
    "name": "郑州市中牟县八岗供电所",
    "account": "4105259604434 ",
    "lng": "113.974229",
    "lat": "34.595242",
    "capacity": "28.08",
    "power": "郑州市中牟县八岗供电所",
    "county": "国网河南省电力公司中牟县供电公司"
  },
  {
    "name": "郑州白沙供电所",
    "account": "4105282374391 ",
    "lng": "113.864396",
    "lat": "34.753237",
    "capacity": "30.525",
    "power": "郑州白沙供电所",
    "county": "国网郑州供电公司"
  },
  {
    "name": "许昌市长葛市大周供电所",
    "account": "4105166108805 ",
    "lng": "113.85",
    "lat": "34.23",
    "capacity": "79.2",
    "power": "许昌市长葛市大周供电所",
    "county": "国网河南省电力公司长葛市供电公司"
  },
  {
    "name": "许昌市长葛市老城供电所",
    "account": "4105166107974 ",
    "lng": "113.850283",
    "lat": "34.229805",
    "capacity": "42.6",
    "power": "许昌市长葛市老城供电所",
    "county": "国网河南省电力公司长葛市供电公司"
  },
  {
    "name": "驻马店市遂平县城东供电所",
    "account": "4105165707173 ",
    "lng": "114.014995",
    "lat": "33.145231",
    "capacity": "23.1",
    "power": "驻马店市遂平县城东供电所",
    "county": "国网河南省电力公司遂平县供电公司"
  },
  {
    "name": "焦作市沁阳王占供电所",
    "account": "4105165978661 ",
    "lng": "112.959909",
    "lat": "35.095464",
    "capacity": "24.84",
    "power": "焦作市沁阳王占供电所",
    "county": "国网河南省电力公司沁阳市供电公司"
  },
  {
    "name": "焦作市沁阳崇义供电所",
    "account": "4105166005773 ",
    "lng": "112.959909",
    "lat": "35.095464",
    "capacity": "21.6",
    "power": "焦作市沁阳崇义供电所",
    "county": "国网河南省电力公司沁阳市供电公司"
  },
  {
    "name": "焦作市沁阳市王曲供电所",
    "account": "4105166012775 ",
    "lng": "112.959909",
    "lat": "35.095464",
    "capacity": "11.88",
    "power": "焦作市沁阳市王曲供电所",
    "county": "国网河南省电力公司沁阳市供电公司"
  },
  {
    "name": "焦作市沁阳市柏香供电所",
    "account": "4105166080952 ",
    "lng": "112.959909",
    "lat": "35.095464",
    "capacity": "17.28",
    "power": "焦作市沁阳市柏香供电所",
    "county": "国网河南省电力公司沁阳市供电公司"
  },
  {
    "name": "焦作市博爱县供电局",
    "account": "4105166095189 ",
    "lng": "113.070478",
    "lat": "35.17730806",
    "capacity": "88",
    "power": "焦作市博爱县供电局",
    "county": "国网河南省电力公司博爱县供电公司"
  },
  {
    "name": "焦作市沁阳市供电公司",
    "account": "4105166107336 ",
    "lng": "112.959909",
    "lat": "35.095464",
    "capacity": "32.4",
    "power": "焦作市沁阳市供电公司",
    "county": "国网河南省电力公司沁阳市供电公司"
  },
  {
    "name": "焦作市沁阳市王召供电所",
    "account": "4105166127279 ",
    "lng": "112.959909",
    "lat": "35.095464",
    "capacity": "18.36",
    "power": "焦作市沁阳市王召供电所",
    "county": "国网河南省电力公司沁阳市供电公司"
  },
  {
    "name": "焦作市区王封供电所",
    "account": "4105163012961 ",
    "lng": "113.21",
    "lat": "35.24",
    "capacity": "25.92",
    "power": "焦作市区王封供电所",
    "county": "国网河南省电力公司焦作供电公司"
  },
  {
    "name": "焦作市区安阳城供电所",
    "account": "4105162798840 ",
    "lng": "113.21",
    "lat": "35.24",
    "capacity": "12.96",
    "power": "焦作市区安阳城供电所",
    "county": "国网河南省电力公司焦作供电公司"
  },
  {
    "name": "焦作市孟州市化工供电所",
    "account": "4105162875389 ",
    "lng": "112.79",
    "lat": "34.911",
    "capacity": "27",
    "power": "焦作市孟州市化工供电所",
    "county": "国网河南省电力公司孟州市供电公司"
  },
  {
    "name": "焦作市修武县丰收路城关营业厅",
    "account": "4105164331928 ",
    "lng": "113.361799",
    "lat": "35.220022",
    "capacity": "46.44",
    "power": "焦作市修武县丰收路城关营业厅",
    "county": "国网河南省电力公司修武县供电公司"
  },
  {
    "name": "焦作市孟州市供电公司办公楼",
    "account": "4105164716125 ",
    "lng": "112.79",
    "lat": "34.911",
    "capacity": "21.6",
    "power": "焦作市孟州市供电公司",
    "county": "国网河南省电力公司孟州市供电公司"
  },
  {
    "name": "焦作市孟州市城西供电所",
    "account": "4105164742197 ",
    "lng": "112.79",
    "lat": "34.911",
    "capacity": "32.4",
    "power": "焦作市孟州市城西供电所",
    "county": "国网河南省电力公司孟州市供电公司"
  },
  {
    "name": "焦作市孟州市河阳供电所",
    "account": "4105165344857 ",
    "lng": "112.79",
    "lat": "34.911",
    "capacity": "32.4",
    "power": "焦作市孟州市河阳供电所",
    "county": "国网河南省电力公司孟州市供电公司"
  },
  {
    "name": "济源市区梨林供电所",
    "account": "4105163678367 ",
    "lng": "112.616833",
    "lat": "35.046408",
    "capacity": "25.92",
    "power": "济源市区梨林供电所",
    "county": "国网济源供电公司"
  },
  {
    "name": "济源市坡头供电所",
    "account": "4105163880344 ",
    "lng": "112.616833",
    "lat": "35.046408",
    "capacity": "10.8",
    "power": "济源市坡头供电所",
    "county": "国网济源供电公司"
  },
  {
    "name": "济源市区东添浆供电所",
    "account": "4105164075156 ",
    "lng": "112.616833",
    "lat": "35.046408",
    "capacity": "25.92",
    "power": "济源市区东添浆供电所",
    "county": "国网济源供电公司"
  },
  {
    "name": "（济源）沁园",
    "account": "4105322061890 ",
    "lng": "112.616833",
    "lat": "35.046408",
    "capacity": "138.9",
    "power": "国网济源供电公司",
    "county": "国网济源供电公司"
  },
  {
    "name": "许昌市禹州市火龙镇供电所",
    "account": "4105165002773 ",
    "lng": "113.33388",
    "lat": "34.322022",
    "capacity": "16.5",
    "power": "许昌市禹州市火龙镇供电所",
    "county": "国网河南省电力公司禹州市供电公司"
  },
  {
    "name": "许昌市禹州市花石乡供电所",
    "account": "4105165039764",
    "lng": "113.33388",
    "lat": "34.322022",
    "capacity": "24.2",
    "power": "许昌市禹州市花石乡供电所",
    "county": "国网河南省电力公司禹州市供电公司"
  },
  {
    "name": "许昌市禹州市朱阁镇供电所",
    "account": "4105165150078",
    "lng": "113.33388",
    "lat": "34.322022",
    "capacity": "18.15",
    "power": "许昌市禹州市朱阁镇供电所",
    "county": "国网河南省电力公司禹州市供电公司"
  },
  {
    "name": "许昌市禹州市小吕乡供电所",
    "account": "4105165153602",
    "lng": "113.33388",
    "lat": "34.322022",
    "capacity": "17.6",
    "power": "许昌市禹州市小吕乡供电所",
    "county": "国网河南省电力公司禹州市供电公司"
  },
  {
    "name": "许昌市禹州市范坡供电所",
    "account": "4105165153732",
    "lng": "113.33388",
    "lat": "34.322022",
    "capacity": "18.7",
    "power": "许昌市禹州市范坡供电所",
    "county": "国网河南省电力公司禹州市供电公司"
  },
  {
    "name": "许昌市禹州市鸿畅供电所",
    "account": "4105165157112",
    "lng": "113.33388",
    "lat": "34.322022",
    "capacity": "18.15",
    "power": "许昌市禹州市鸿畅供电所",
    "county": "国网河南省电力公司禹州市供电公司"
  },
  {
    "name": "许昌市禹州市山货回族供电所",
    "account": "4105165194335",
    "lng": "113.33388",
    "lat": "34.322022",
    "capacity": "11.55",
    "power": "许昌市禹州市山货回族供电所",
    "county": "国网河南省电力公司禹州市供电公司"
  },
  {
    "name": "许昌市禹州市方岗供电所",
    "account": "4105165526860",
    "lng": "113.33388",
    "lat": "34.322022",
    "capacity": "18.7",
    "power": "许昌市禹州市方岗供电所",
    "county": "国网河南省电力公司禹州市供电公司"
  },
  {
    "name": "许昌市禹州市浅井供电所",
    "account": "4105165562804",
    "lng": "113.33388",
    "lat": "34.322022",
    "capacity": "19.25",
    "power": "许昌市禹州市浅井供电所",
    "county": "国网河南省电力公司禹州市供电公司"
  },
  {
    "name": "许昌市禹州市梁北供电所",
    "account": "4105165564594",
    "lng": "113.33388",
    "lat": "34.322022",
    "capacity": "25.3",
    "power": "许昌市禹州市梁北供电所",
    "county": "国网河南省电力公司禹州市供电公司"
  },
  {
    "name": "许昌市禹州市无梁供电所",
    "account": "4105165565933",
    "lng": "113.33388",
    "lat": "34.322022",
    "capacity": "36.85",
    "power": "许昌市禹州市无梁供电所",
    "county": "国网河南省电力公司禹州市供电公司"
  },
  {
    "name": "许昌市禹州市城区供电所",
    "account": "4105165567812",
    "lng": "113.33388",
    "lat": "34.322022",
    "capacity": "12.1",
    "power": "许昌市禹州市城区供电所",
    "county": "国网河南省电力公司禹州市供电公司"
  },
  {
    "name": "许昌市禹州市文殊镇供电所",
    "account": "4105165569834",
    "lng": "113.33388",
    "lat": "34.322022",
    "capacity": "15.4",
    "power": "许昌市禹州市文殊镇供电所",
    "county": "国网河南省电力公司禹州市供电公司"
  },
  {
    "name": "许昌市禹州市神垕供电所",
    "account": "4105165607633",
    "lng": "113.33388",
    "lat": "34.322022",
    "capacity": "51.84",
    "power": "许昌市禹州市神垕供电所",
    "county": "国网河南省电力公司禹州市供电公司"
  },
  {
    "name": "许昌市襄城县山头店供电所",
    "account": "4105165614488",
    "lng": "113.491702",
    "lat": "33.848555",
    "capacity": "29.7",
    "power": "许昌市襄城县山头店供电所",
    "county": "国网河南省电力公司襄城县供电公司"
  },
  {
    "name": "许昌市襄城县库庄供电所",
    "account": "4105165615683",
    "lng": "113.491702",
    "lat": "33.848555",
    "capacity": "16.5",
    "power": "许昌市襄城县库庄供电所",
    "county": "国网河南省电力公司襄城县供电公司"
  },
  {
    "name": "许昌市襄城县颍阳镇",
    "account": "4105165616484",
    "lng": "113.491702",
    "lat": "33.848555",
    "capacity": "14.3",
    "power": "国网河南省电力公司襄城县供电公司",
    "county": "国网河南省电力公司襄城县供电公司"
  },
  {
    "name": "许昌市襄城县紫云镇供电局",
    "account": "4105165634770",
    "lng": "113.491702",
    "lat": "33.848555",
    "capacity": "28.05",
    "power": "许昌市襄城县紫云镇供电局",
    "county": "国网河南省电力公司襄城县供电公司"
  },
  {
    "name": "许昌市襄城县汾陈供电所",
    "account": "4105165653069",
    "lng": "113.491702",
    "lat": "33.848555",
    "capacity": "12.1",
    "power": "国网河南省电力公司襄城县供电公司",
    "county": "国网河南省电力公司襄城县供电公司"
  },
  {
    "name": "许昌市襄城县王洛供电所",
    "account": "4105165655010",
    "lng": "113.491702",
    "lat": "33.848555",
    "capacity": "15.95",
    "power": "许昌市襄城县王洛供电所",
    "county": "国网河南省电力公司襄城县供电公司"
  },
  {
    "name": "许昌市长葛市后河供电所",
    "account": "4105166096111 ",
    "lng": "113.850283",
    "lat": "34.229805",
    "capacity": "23.1",
    "power": "许昌市长葛市后河供电所",
    "county": "国网河南省电力公司长葛市供电公司"
  },
  {
    "name": "许昌市长葛南席供电所",
    "account": "4105166105213 ",
    "lng": "113.850283",
    "lat": "34.229805",
    "capacity": "22",
    "power": "许昌市长葛南席供电所",
    "county": "国网河南省电力公司长葛市供电公司"
  },
  {
    "name": "许昌市长葛市坡胡供电所",
    "account": "4105166106434 ",
    "lng": "113.850283",
    "lat": "34.229805",
    "capacity": "29.7",
    "power": "许昌市长葛市坡胡供电所",
    "county": "国网河南省电力公司长葛市供电公司"
  },
  {
    "name": "许昌市长葛市石象镇供电所1区",
    "account": "4105166109127 ",
    "lng": "113.850283",
    "lat": "34.229805",
    "capacity": "21.45",
    "power": "许昌市长葛市石象镇供电所",
    "county": "国网河南省电力公司长葛市供电公司"
  },
  {
    "name": "许昌市长葛市和尚桥供电所",
    "account": "4105166109808 ",
    "lng": "113.850283",
    "lat": "34.229805",
    "capacity": "66",
    "power": "许昌市长葛市和尚桥供电所",
    "county": "国网河南省电力公司长葛市供电公司"
  },
  {
    "name": "许昌市长葛市董村镇供电所",
    "account": "4105166110437 ",
    "lng": "113.850283",
    "lat": "34.229805",
    "capacity": "30.25",
    "power": "许昌市长葛市董村镇供电所",
    "county": "国网河南省电力公司长葛市供电公司"
  },
  {
    "name": "许昌市电业局医院楼",
    "account": "4105165506174 ",
    "lng": "113.5048718",
    "lat": "34.124265",
    "capacity": "39.69",
    "power": "许昌市电业局",
    "county": "国网许昌供电公司"
  },
  {
    "name": "许昌市电业局营销楼",
    "account": "4105165508343 ",
    "lng": "113.5048718",
    "lat": "34.124265",
    "capacity": "29.925",
    "power": "许昌市电业局",
    "county": "国网许昌供电公司"
  },
  {
    "name": "许昌市建安区鲲鹏设计院",
    "account": "4105165509551",
    "lng": "113.831491",
    "lat": "33.992118",
    "capacity": "65.45",
    "power": "国网许昌供电公司",
    "county": "国网许昌供电公司"
  },
  {
    "name": "许昌市建安区蒋李集镇供电所",
    "account": "4105165254086",
    "lng": "113.831491",
    "lat": "33.992118",
    "capacity": "17.6",
    "power": "许昌市建安区蒋李集镇供电所",
    "county": "国网许昌供电公司"
  },
  {
    "name": "许昌市建安区桂村供电所",
    "account": "4105165275733",
    "lng": "113.831491",
    "lat": "33.992118",
    "capacity": "36",
    "power": "许昌市建安区桂村供电所",
    "county": "国网许昌供电公司"
  },
  {
    "name": "许昌市建安区艾庄供电所",
    "account": "4105165275922",
    "lng": "113.831491",
    "lat": "33.992118",
    "capacity": "18",
    "power": "许昌市建安区艾庄供电所",
    "county": "国网许昌供电公司"
  },
  {
    "name": "许昌市建安区陈曹供电所",
    "account": "4105165289534",
    "lng": "113.831491",
    "lat": "33.992118",
    "capacity": "29",
    "power": "许昌市建安区陈曹供电所",
    "county": "国网许昌供电公司"
  },
  {
    "name": "许昌市建安区榆林供电所",
    "account": "4105165289765",
    "lng": "113.831491",
    "lat": "33.992118",
    "capacity": "21",
    "power": "许昌市建安区榆林供电所",
    "county": "国网许昌供电公司"
  },
  {
    "name": "许昌市电业局运维楼",
    "account": "4105165509274",
    "lng": "113.5048718",
    "lat": "34.124265",
    "capacity": "26.46",
    "power": "许昌市电业局",
    "county": "国网许昌供电公司"
  },
  {
    "name": "许昌市长葛市增福庙供电所",
    "account": "4105166106173",
    "lng": "113.850283",
    "lat": "34.229805",
    "capacity": "21.45",
    "power": "许昌市长葛市增福庙供电所",
    "county": "国网河南省电力公司长葛市供电公司"
  },
  {
    "name": "许昌市长葛市107与黄河路供电所",
    "account": "4105166108443",
    "lng": "113.850283",
    "lat": "34.229805",
    "capacity": "38.5",
    "power": "许昌市长葛市107与黄河路供电所",
    "county": "国网河南省电力公司长葛市供电公司"
  },
  {
    "name": "许昌市长葛市古桥供电所",
    "account": "4105166110033",
    "lng": "113.850283",
    "lat": "34.229805",
    "capacity": "30.25",
    "power": "许昌市长葛市古桥供电所",
    "county": "国网河南省电力公司长葛市供电公司"
  },
  {
    "name": "许昌市长葛市供电局",
    "account": "4105166110088",
    "lng": "113.850283",
    "lat": "34.229805",
    "capacity": "67.1",
    "power": "许昌市长葛市供电局",
    "county": "国网河南省电力公司长葛市供电公司"
  },
  {
    "name": "郑州市新郑市龙湖营业厅",
    "account": "4105165573068",
    "lng": "113.6443436",
    "lat": "34.58297691",
    "capacity": "21.6",
    "power": "郑州市新郑市龙湖营业厅",
    "county": "国网河南省电力公司新郑市供电公司"
  },
  {
    "name": "鹤壁市淇县高村供电所",
    "account": "4105163630271",
    "lng": "114.194678",
    "lat": "35.632237",
    "capacity": "12.96",
    "power": "鹤壁市淇县高村供电所",
    "county": "国网河南省电力公司淇县供电公司"
  },
  {
    "name": "鹤壁市淇县黄洞供电所",
    "account": "4105163634143",
    "lng": "114.194678",
    "lat": "35.632237",
    "capacity": "23.22",
    "power": "鹤壁市淇县黄洞供电所",
    "county": "国网河南省电力公司淇县供电公司"
  },
  {
    "name": "鹤壁市浚县卫贤供电所",
    "account": "4105164498003",
    "lng": "114.579858",
    "lat": "35.684655",
    "capacity": "31.86",
    "power": "鹤壁市浚县卫贤供电所",
    "county": "国网河南省电力公司浚县供电公司"
  },
  {
    "name": "鹤壁市浚县新镇供电所",
    "account": "4105164760047",
    "lng": "114.579858",
    "lat": "35.684655",
    "capacity": "21.6",
    "power": "鹤壁市浚县新镇供电所",
    "county": "国网河南省电力公司浚县供电公司"
  },
  {
    "name": "鹤壁市浚县王庄供电所",
    "account": "4105164764182",
    "lng": "114.579858",
    "lat": "35.684655",
    "capacity": "16.2",
    "power": "鹤壁市浚县王庄供电所",
    "county": "国网河南省电力公司浚县供电公司"
  },
  {
    "name": "鹤壁市浚县屯子供电所",
    "account": "4105164424554",
    "lng": "114.579858",
    "lat": "35.684655",
    "capacity": "10.8",
    "power": "鹤壁市浚县屯子供电所",
    "county": "国网河南省电力公司浚县供电公司"
  },
  {
    "name": "安阳市安阳县北郭供电所",
    "account": "4105164055532",
    "lng": "114.7003812",
    "lat": "36.085945",
    "capacity": "28.8",
    "power": "安阳市安阳县北郭供电所",
    "county": "国网河南省电力公司安阳县供电公司"
  },
  {
    "name": "安阳市安阳县宝莲寺供电所",
    "account": "4105164341176",
    "lng": "114.361779",
    "lat": "36.00721",
    "capacity": "21.6",
    "power": "安阳市安阳县宝莲寺供电所",
    "county": "国网河南省电力公司安阳县供电公司"
  },
  {
    "name": "安阳市安阳县吕村供电所",
    "account": "4105164313339",
    "lng": "114.628022",
    "lat": "36.09038",
    "capacity": "12.8",
    "power": "安阳市安阳县吕村供电所",
    "county": "国网河南省电力公司安阳县供电公司"
  },
  {
    "name": "安阳市滑县留固供电所",
    "account": "4105165416707",
    "lng": "114.532221",
    "lat": "35.546108",
    "capacity": "27",
    "power": "安阳市滑县留固供电所",
    "county": "国网河南省电力公司滑县供电公司"
  },
  {
    "name": "安阳市内黄县井店供电所",
    "account": "4105165416824",
    "lng": "113.834118",
    "lat": "36.06306",
    "capacity": "14",
    "power": "安阳市内黄县井店供电所",
    "county": "国网河南省电力公司内黄县供电公司"
  },
  {
    "name": "安阳市优创集团运维公司南楼",
    "account": "4105165663552",
    "lng": "114.334343",
    "lat": "36.10814",
    "capacity": "12.96",
    "power": "安阳市供电公司",
    "county": "国网河南省电力公司安阳供电公司"
  },
  {
    "name": "安阳市安阳县安丰供电所",
    "account": "4105155464497",
    "lng": "114.280102",
    "lat": "36.225403",
    "capacity": "82.08",
    "power": "安阳市安阳县安丰供电所",
    "county": "国网河南省电力公司安阳县供电公司"
  },
  {
    "name": "安阳市供电公司",
    "account": "4105155571838",
    "lng": "114.365486",
    "lat": "36.099276",
    "capacity": "32.4",
    "power": "安阳市供电公司",
    "county": "国网河南省电力公司安阳供电公司"
  },
  {
    "name": "安阳优创供电局",
    "account": "4105156070163",
    "lng": "114.334343",
    "lat": "36.10814",
    "capacity": "30",
    "power": "安阳优创供电局",
    "county": "国网河南省电力公司安阳供电公司"
  },
  {
    "name": "安阳市林州市东岗供电所",
    "account": "4105163047233",
    "lng": "113.923818",
    "lat": "36.256615",
    "capacity": "10.8",
    "power": "安阳市林州市东岗供电所",
    "county": "国网河南省电力公司林州市供电公司"
  },
  {
    "name": "安阳市林州市河顺供电所",
    "account": "4105163052356",
    "lng": "113.834118",
    "lat": "36.06306",
    "capacity": "25.92",
    "power": "安阳市林州市河顺供电所",
    "county": "国网河南省电力公司林州市供电公司"
  },
  {
    "name": "安阳市林州市横水供电所",
    "account": "4105163054365",
    "lng": "113.834118",
    "lat": "36.06306",
    "capacity": "23.22",
    "power": "安阳市林州市横水供电所",
    "county": "国网河南省电力公司林州市供电公司"
  },
  {
    "name": "安阳市林州市任村供电所",
    "account": "4105163055717",
    "lng": "114.3755",
    "lat": "35.9235",
    "capacity": "21.6",
    "power": "安阳市林州市任村供电所",
    "county": "国网河南省电力公司林州市供电公司"
  },
  {
    "name": "安阳市林州市姚村供电所",
    "account": "4105163055948",
    "lng": "114.3755",
    "lat": "35.9235",
    "capacity": "10.8",
    "power": "安阳市林州市姚村供电所",
    "county": "国网河南省电力公司林州市供电公司"
  },
  {
    "name": "安阳市林州市合涧供电所",
    "account": "4105163056172",
    "lng": "114.3755",
    "lat": "35.9235",
    "capacity": "27",
    "power": "安阳市林州市合涧供电所",
    "county": "国网河南省电力公司林州市供电公司"
  },
  {
    "name": "安阳市林州市桂林供电所",
    "account": "4105163056433",
    "lng": "114.3755",
    "lat": "35.9235",
    "capacity": "32.4",
    "power": "安阳市林州市桂林供电所",
    "county": "国网河南省电力公司林州市供电公司"
  },
  {
    "name": "安阳市林州市原康供电所",
    "account": "4105163067163",
    "lng": "114.3755",
    "lat": "35.9235",
    "capacity": "32.4",
    "power": "安阳市林州市原康供电所",
    "county": "国网河南省电力公司林州市供电公司"
  },
  {
    "name": "安阳市林州市临淇供电所",
    "account": "4105163069374",
    "lng": "114.3755",
    "lat": "35.9235",
    "capacity": "21.06",
    "power": "安阳市林州市临淇供电所",
    "county": "国网河南省电力公司林州市供电公司"
  },
  {
    "name": "安阳市林州市五龙供电所",
    "account": "4105163069475",
    "lng": "114.3755",
    "lat": "35.9235",
    "capacity": "22.18",
    "power": "安阳市林州市五龙供电所",
    "county": "国网河南省电力公司林州市供电公司"
  },
  {
    "name": "安阳市林州市东姚供电所",
    "account": "4105163069547",
    "lng": "114.3755",
    "lat": "35.9235",
    "capacity": "11.88",
    "power": "安阳市林州市东姚供电所",
    "county": "国网河南省电力公司林州市供电公司"
  },
  {
    "name": "安阳市林州市采桑供电所",
    "account": "4105163069592",
    "lng": "114.3755",
    "lat": "35.9235",
    "capacity": "16.2",
    "power": "安阳市林州市采桑供电所",
    "county": "国网河南省电力公司林州市供电公司"
  },
  {
    "name": "安阳市安阳县马投涧供电所",
    "account": "4105164350868",
    "lng": "114.365",
    "lat": "36.099",
    "capacity": "10.8",
    "power": "安阳市安阳县马投涧供电所",
    "county": "国网河南省电力公司安阳县供电公司"
  },
  {
    "name": "安阳市优创集团办公楼",
    "account": "4105165038240",
    "lng": "114.334343",
    "lat": "36.10814",
    "capacity": "108.81",
    "power": "安阳市供电公司",
    "county": "国网河南省电力公司安阳供电公司"
  },
  {
    "name": "安阳市安阳县高庄供电所",
    "account": "4105165231753",
    "lng": "114.365",
    "lat": "36.099",
    "capacity": "10.8",
    "power": "安阳市安阳县高庄供电所",
    "county": "国网河南省电力公司安阳县供电公司"
  },
  {
    "name": "安阳市安阳县都里供电所",
    "account": "4105165424890",
    "lng": "114.365",
    "lat": "36.099",
    "capacity": "12.8",
    "power": "安阳市安阳县都里供电所",
    "county": "国网河南省电力公司安阳县供电公司"
  },
  {
    "name": "安阳市内黄县石盘屯供电所",
    "account": "4105165442027",
    "lng": "114.3755",
    "lat": "35.9235",
    "capacity": "27",
    "power": "安阳市内黄县石盘屯供电所",
    "county": "国网河南省电力公司内黄县供电公司"
  },
  {
    "name": "安阳市内黄县楚旺供电所",
    "account": "4105165445097",
    "lng": "114.3755",
    "lat": "35.9235",
    "capacity": "10",
    "power": "安阳市内黄县楚旺供电所",
    "county": "国网河南省电力公司安阳县供电公司"
  },
  {
    "name": "安阳市安阳县瓦店供电所",
    "account": "4105164348904",
    "lng": "114.365",
    "lat": "36.099",
    "capacity": "21.06",
    "power": "安阳市安阳县瓦店供电所",
    "county": "国网河南省电力公司安阳县供电公司"
  },
  {
    "name": "安阳市安阳县辛村供电所",
    "account": "4105165456206",
    "lng": "114.365",
    "lat": "36.099",
    "capacity": "10.8",
    "power": "安阳市安阳县辛村供电所",
    "county": "国网河南省电力公司安阳县供电公司"
  },
  {
    "name": "安阳市汤阴县瓦岗供电所",
    "account": "4105165526639",
    "lng": "114.3755",
    "lat": "35.9235",
    "capacity": "10.8",
    "power": "安阳市汤阴县瓦岗供电所",
    "county": "国网河南省电力公司汤阴县供电公司"
  },
  {
    "name": "安阳市汤阴县韩庄供电所",
    "account": "4105165563937",
    "lng": "114.3755",
    "lat": "35.9235",
    "capacity": "21.06",
    "power": "安阳市汤阴县韩庄供电所",
    "county": "国网河南省电力公司汤阴县供电公司"
  },
  {
    "name": "安阳市汤阴县古贤供电所",
    "account": "4105165567593",
    "lng": "114.3755",
    "lat": "35.9235",
    "capacity": "10",
    "power": "安阳市汤阴县古贤供电所",
    "county": "国网河南省电力公司汤阴县供电公司"
  },
  {
    "name": "安阳市汤阴县宜沟供电所",
    "account": "4105165573387",
    "lng": "114.3755",
    "lat": "35.9235",
    "capacity": "10",
    "power": "安阳市汤阴县宜沟供电所",
    "county": "国网河南省电力公司汤阴县供电公司"
  },
  {
    "name": "安阳市汤阴县五陵供电所",
    "account": "4105165583320",
    "lng": "114.3755",
    "lat": "35.9235",
    "capacity": "10.8",
    "power": "安阳市汤阴县五陵供电所",
    "county": "国网河南省电力公司汤阴县供电公司"
  },
  {
    "name": "安阳市汤阴县中心供电所",
    "account": "4105165663930",
    "lng": "114.3755",
    "lat": "35.9235",
    "capacity": "37.8",
    "power": "安阳市汤阴县中心供电所",
    "county": "国网河南省电力公司汤阴县供电公司"
  },
  {
    "name": "安阳市汤阴县城关供电所",
    "account": "4105166036971",
    "lng": "114.3755",
    "lat": "35.9235",
    "capacity": "15.66",
    "power": "安阳市汤阴县城关供电所",
    "county": "国网河南省电力公司汤阴县供电公司"
  },
  {
    "name": "安阳市林州市陵阳镇红旗渠供电所",
    "account": "4105167598067",
    "lng": "114.3755",
    "lat": "35.9235",
    "capacity": "34.56",
    "power": "安阳市林州市陵阳镇红旗渠供电所",
    "county": "国网河南省电力公司林州市供电公司"
  },
  {
    "name": "安阳市汤阴县菜园供电所",
    "account": "4105165607688",
    "lng": "114.3755",
    "lat": "35.9235",
    "capacity": "10.8",
    "power": "安阳市汤阴县菜园供电所",
    "county": "国网河南省电力公司汤阴县供电公司"
  },
  {
    "name": "国网安阳供电公司用电服务二班",
    "account": "4105165662647",
    "lng": "114.365486",
    "lat": "36.099276",
    "capacity": "21.6",
    "power": "国网安阳供电公司",
    "county": "国网河南省电力公司汤阴县供电公司"
  },
  {
    "name": "安阳市优创集团计量楼",
    "account": "4105288026070",
    "lng": "114.334343",
    "lat": "36.10814",
    "capacity": "21.6",
    "power": "国网安阳供电公司",
    "county": "国网河南省电力公司安阳供电公司"
  },
  {
    "name": "开封市仇楼供电所",
    "account": "4105164107855",
    "lng": "114.4476",
    "lat": "34.747",
    "capacity": "19",
    "power": "开封市仇楼供电所",
    "county": "国网开封市祥符供电公司"
  },
  {
    "name": "开封市祥符区半坡店供电所",
    "account": "4105164109747",
    "lng": "114.4476",
    "lat": "34.747",
    "capacity": "30",
    "power": "开封市祥符区半坡店供电所",
    "county": "国网开封市祥符供电公司"
  },
  {
    "name": "开封市袁坊供电所",
    "account": "4105164110220",
    "lng": "114.4476",
    "lat": "34.747",
    "capacity": "30",
    "power": "开封市袁坊供电所",
    "county": "国网开封市祥符供电公司"
  },
  {
    "name": "开封市祥符区黄龙园区供电所",
    "account": "4105164111829",
    "lng": "114.4476",
    "lat": "34.747",
    "capacity": "22",
    "power": "开封市祥符区黄龙园区供电所",
    "county": "国网开封市祥符供电公司"
  },
  {
    "name": "开封市兰考县葡萄架供电所",
    "account": "4105164304689",
    "lng": "114.8164",
    "lat": "34.8002",
    "capacity": "10.8",
    "power": "开封市兰考县葡萄架供电所",
    "county": "国网河南省电力公司兰考县供电公司"
  },
  {
    "name": "开封市兰考县裕禄供电所",
    "account": "4105164523495",
    "lng": "114.8164",
    "lat": "34.8002",
    "capacity": "29.16",
    "power": "开封市兰考县裕禄供电所",
    "county": "国网河南省电力公司兰考县供电公司"
  },
  {
    "name": "开封市尉氏县城二所",
    "account": "4105164538257",
    "lng": "114.3013",
    "lat": "34.7949",
    "capacity": "12.96",
    "power": "开封市尉氏县城二所",
    "county": "国网河南省电力公司尉氏县供电公司"
  },
  {
    "name": "开封市尉氏县岗李供电所",
    "account": "4105164708205",
    "lng": "114.3013",
    "lat": "34.7949",
    "capacity": "11.34",
    "power": "开封市尉氏县岗李供电所",
    "county": "国网河南省电力公司尉氏县供电公司"
  },
  {
    "name": "开封市尉氏县大马供电所",
    "account": "4105164710097",
    "lng": "114.3013",
    "lat": "34.7949",
    "capacity": "10.8",
    "power": "开封市尉氏县大马供电所",
    "county": "国网河南省电力公司尉氏县供电公司"
  },
  {
    "name": "开封市尉氏县朱曲供电所",
    "account": "4105165050512",
    "lng": "114.3013",
    "lat": "34.7949",
    "capacity": "10.8",
    "power": "开封市尉氏县朱曲供电所",
    "county": "国网河南省电力公司尉氏县供电公司"
  },
  {
    "name": "开封市尉氏县永兴供电所",
    "account": "4105165052215",
    "lng": "114.3013",
    "lat": "34.7949",
    "capacity": "10.8",
    "power": "开封市尉氏县永兴供电所",
    "county": "国网河南省电力公司尉氏县供电公司"
  },
  {
    "name": "开封市尉氏县门楼供电所",
    "account": "4105165058372",
    "lng": "114.3013",
    "lat": "34.7949",
    "capacity": "17.28",
    "power": "开封市尉氏县门楼供电所",
    "county": "国网河南省电力公司尉氏县供电公司"
  },
  {
    "name": "开封市尉氏县蔡庄供电所",
    "account": "4105165575295",
    "lng": "114.3013",
    "lat": "34.7949",
    "capacity": "10.26",
    "power": "开封市尉氏县蔡庄供电所",
    "county": "国网河南省电力公司尉氏县供电公司"
  },
  {
    "name": "开封市通许县玉皇庙供电所",
    "account": "4105166042912",
    "lng": "114.3525",
    "lat": "34.445272",
    "capacity": "12.96",
    "power": "开封市通许县玉皇庙供电所",
    "county": "国网河南省电力公司通许县供电公司"
  },
  {
    "name": "开封市通许县朱砂供电所",
    "account": "4105166060426",
    "lng": "114.3525",
    "lat": "34.445272",
    "capacity": "16.2",
    "power": "开封市通许县朱砂供电所",
    "county": "国网河南省电力公司通许县供电公司"
  },
  {
    "name": "开封市通许县练城供电所",
    "account": "4105166078649",
    "lng": "114.3525",
    "lat": "34.445272",
    "capacity": "15.12",
    "power": "开封市通许县练城供电所",
    "county": "国网河南省电力公司通许县供电公司"
  },
  {
    "name": "开封市通许县邸阁供电所",
    "account": "4105166084462",
    "lng": "114.3525",
    "lat": "34.445272",
    "capacity": "10.8",
    "power": "开封市通许县邸阁供电所",
    "county": "国网河南省电力公司通许县供电公司"
  },
  {
    "name": "开封市通许县城关二所供电营业厅",
    "account": "4105166114455",
    "lng": "114.3525",
    "lat": "34.445272",
    "capacity": "48.6",
    "power": "开封市通许县城关二所供电营业厅",
    "county": "国网河南省电力公司通许县供电公司"
  },
  {
    "name": "开封市通许县城关一所、三所供电营业厅",
    "account": "4105166115865",
    "lng": "114.3525",
    "lat": "34.445272",
    "capacity": "45.36",
    "power": "开封市通许县城关一所、三所供电营业厅",
    "county": "国网河南省电力公司通许县供电公司"
  },
  {
    "name": "开封市兰考县坝头供电所",
    "account": "4105151085340",
    "lng": "114.8164",
    "lat": "34.8002",
    "capacity": "22.6",
    "power": "开封市兰考县坝头供电所",
    "county": "国网河南省电力公司兰考县供电公司"
  },
  {
    "name": "开封市兰考县产业集聚区供电所",
    "account": "4105164452232",
    "lng": "114.8164",
    "lat": "34.8002",
    "capacity": "16.2",
    "power": "开封市兰考县产业集聚区供电所",
    "county": "国网河南省电力公司兰考县供电公司"
  },
  {
    "name": "开封市通许县孙营供电所",
    "account": "4105166078652",
    "lng": "114.3525",
    "lat": "34.445272",
    "capacity": "10.8",
    "power": "开封市通许县孙营供电所",
    "county": "国网河南省电力公司通许县供电公司"
  },
  {
    "name": "郑州市登封市东华镇供电所",
    "account": "4105165482122",
    "lng": "113.0372",
    "lat": "34.4537",
    "capacity": "10.8",
    "power": "郑州市登封市东华镇供电所",
    "county": "国网河南省电力公司登封市供电公司"
  },
  {
    "name": "郑州市圃田供电所",
    "account": "4105160634430",
    "lng": "113.803",
    "lat": "34.7723",
    "capacity": "55.08",
    "power": "郑州市圃田供电所",
    "county": "国网郑州供电公司"
  },
  {
    "name": "郑州市新密市大隗供电所",
    "account": "4105163386406",
    "lng": "113.3539",
    "lat": "34.536605",
    "capacity": "20",
    "power": "郑州市新密市大隗供电所",
    "county": "国网河南省电力公司新密市供电公司"
  },
  {
    "name": "郑州市省电力公司",
    "account": "4105163551808",
    "lng": "113.803",
    "lat": "34.7723",
    "capacity": "619.39",
    "power": "郑州市省电力公司",
    "county": "国网河南省供电公司"
  },
  {
    "name": "郑州市巩义市大峪沟供电所",
    "account": "4105164057567",
    "lng": "113.24",
    "lat": "34.73383",
    "capacity": "9.18",
    "power": "郑州市巩义市大峪沟供电所",
    "county": "国网河南省电力公司巩义市供电公司"
  },
  {
    "name": "郑州市巩义市河洛供电所",
    "account": "4105164059781",
    "lng": "113.24",
    "lat": "34.73383",
    "capacity": "23.76",
    "power": "郑州市巩义市河洛供电所",
    "county": "国网河南省电力公司巩义市供电公司"
  },
  {
    "name": "郑州市巩义市回东供电所",
    "account": "4105164477226",
    "lng": "113.24",
    "lat": "34.73383",
    "capacity": "20",
    "power": "郑州市巩义市回东供电所",
    "county": "国网河南省电力公司巩义市供电公司"
  },
  {
    "name": "郑州市巩义市芝田供电所",
    "account": "4105164483254",
    "lng": "113.24",
    "lat": "34.73383",
    "capacity": "25.92",
    "power": "郑州市巩义市芝田供电所",
    "county": "国网河南省电力公司巩义市供电公司"
  },
  {
    "name": "郑州市新密市七里岗供电所",
    "account": "4105164756204",
    "lng": "113.3539",
    "lat": "34.5366",
    "capacity": "28",
    "power": "郑州市新密市七里岗供电所",
    "county": "国网河南省电力公司新密市供电公司"
  },
  {
    "name": "郑州市新密市白寨供电所",
    "account": "4105165135143",
    "lng": "113.3539",
    "lat": "34.5366",
    "capacity": "10",
    "power": "郑州市新密市白寨供电所",
    "county": "国网河南省电力公司新密市供电公司"
  },
  {
    "name": "郑州市登封市唐庄供电所",
    "account": "4105165318247",
    "lng": "113.037",
    "lat": "34.4537",
    "capacity": "24.84",
    "power": "郑州市登封市唐庄供电所",
    "county": "国网河南省电力公司登封市供电公司"
  },
  {
    "name": "郑州市登封西区供电所",
    "account": "4105165455913",
    "lng": "113.037",
    "lat": "34.4537",
    "capacity": "10.8",
    "power": "郑州市登封西区供电所",
    "county": "国网河南省电力公司登封市供电公司"
  },
  {
    "name": "郑州市新郑市观音寺供电所",
    "account": "4105165571554",
    "lng": "113.697813",
    "lat": "34.60456",
    "capacity": "14.85",
    "power": "郑州市新郑市观音寺供电所",
    "county": "国网河南省电力公司新郑市供电公司"
  },
  {
    "name": "郑州市新密市岳村供电所",
    "account": "4105163731280",
    "lng": "113.3539",
    "lat": "34.5366",
    "capacity": "36",
    "power": "郑州市新密市岳村供电所",
    "county": "国网河南省电力公司新密市供电公司"
  },
  {
    "name": "郑州市新密市城东供电所",
    "account": "4105164726142",
    "lng": "113.3539",
    "lat": "34.5366",
    "capacity": "25",
    "power": "郑州市新密市城东供电所",
    "county": "国网河南省电力公司新密市供电公司"
  },
  {
    "name": "郑州市新密市城西所供电所",
    "account": "4105165154142",
    "lng": "113.3539",
    "lat": "34.5366",
    "capacity": "25",
    "power": "郑州市新密市城西所供电所",
    "county": "国网河南省电力公司新密市供电公司"
  },
  {
    "name": "郑州市登封市宣化镇供电所",
    "account": "4105165565757",
    "lng": "113.037",
    "lat": "34.4537",
    "capacity": "12.96",
    "power": "郑州市登封市宣化镇供电所",
    "county": "国网河南省电力公司登封市供电公司"
  },
  {
    "name": "郑州市荥阳市乔楼镇供电所",
    "account": "4105165636499",
    "lng": "113.4275",
    "lat": "34.78847",
    "capacity": "32.4",
    "power": "郑州市荥阳市乔楼镇供电所",
    "county": "国网河南省电力公司荥阳市供电公司"
  },
  {
    "name": "郑州市荥阳市刘河镇供电所",
    "account": "4105165639717",
    "lng": "113.4275",
    "lat": "34.78847",
    "capacity": "17",
    "power": "郑州市荥阳市刘河镇供电所",
    "county": "国网河南省电力公司荥阳市供电公司"
  },
  {
    "name": "郑州市荥阳王村供电所",
    "account": "4105165642892",
    "lng": "113.4275",
    "lat": "34.78847",
    "capacity": "10.26",
    "power": "郑州市荥阳王村供电所",
    "county": "国网河南省电力公司荥阳市供电公司"
  },
  {
    "name": "郑州市荥阳市庙子村供电所",
    "account": "4105165664278",
    "lng": "113.4275",
    "lat": "34.78847",
    "capacity": "17",
    "power": "郑州市荥阳市庙子村供电所",
    "county": "国网河南省电力公司荥阳市供电公司"
  },
  {
    "name": "郑州市荥阳市高村供电所",
    "account": "4105165664728",
    "lng": "113.4275",
    "lat": "34.78847",
    "capacity": "15",
    "power": "郑州市荥阳市高村供电所",
    "county": "国网河南省电力公司荥阳市供电公司"
  },
  {
    "name": "郑州市新密市米村供电所",
    "account": "4105164561998",
    "lng": "113.3539",
    "lat": "34.5366",
    "capacity": "48",
    "power": "郑州市新密市米村供电所",
    "county": "国网河南省电力公司新密市供电公司"
  },
  {
    "name": "郑州市新密市苟堂供电所",
    "account": "4105164784940",
    "lng": "113.3539",
    "lat": "34.5366",
    "capacity": "36",
    "power": "郑州市新密市苟堂供电所",
    "county": "国网河南省电力公司新密市供电公司"
  },
  {
    "name": "郑州市新密市平陌供电所",
    "account": "4105162704504",
    "lng": "113.3539",
    "lat": "34.5366",
    "capacity": "22",
    "power": "郑州市新密市平陌供电所",
    "county": "国网河南省电力公司新密市供电公司"
  },
  {
    "name": "郑州市新密市刘寨供电所",
    "account": "4105164823872",
    "lng": "113.3539",
    "lat": "34.5366",
    "capacity": "27.54",
    "power": "郑州市新密市刘寨供电所",
    "county": "国网河南省电力公司新密市供电公司"
  },
  {
    "name": "郑州市登封市颍阳供电所",
    "account": "4105165564275",
    "lng": "113.037",
    "lat": "34.4537",
    "capacity": "22.68",
    "power": "郑州市登封市颍阳供电所",
    "county": "国网河南省电力公司登封市供电公司"
  },
  {
    "name": "濮阳市范县板桥路营业厅",
    "account": "4105166116493",
    "lng": "115.4938",
    "lat": "35.851581",
    "capacity": "41.04",
    "power": "濮阳市范县板桥路营业厅",
    "county": "国网河南省电力公司范县供电公司"
  },
  {
    "name": "濮阳市范县供电局职工公寓",
    "account": "4105166116321",
    "lng": "115.4938",
    "lat": "35.851581",
    "capacity": "38.34",
    "power": "濮阳市范县供电局",
    "county": "国网河南省电力公司范县供电公司"
  },
  {
    "name": "濮阳市范县供电局新区光伏电站",
    "account": "4105166115995",
    "lng": "115.4938",
    "lat": "35.851581",
    "capacity": "12.96",
    "power": "濮阳市范县供电局",
    "county": "国网河南省电力公司范县供电公司"
  },
  {
    "name": "濮阳市范县城关供电营业厅",
    "account": "4105164534561",
    "lng": "115.4938",
    "lat": "35.851581",
    "capacity": "36.72",
    "power": "濮阳市范县城关供电营业厅",
    "county": "国网河南省电力公司范县供电公司"
  },
  {
    "name": "濮阳市清丰县幸福大道营业厅",
    "account": "4105165134603",
    "lng": "115.111",
    "lat": "35.89",
    "capacity": "43.74",
    "power": "濮阳市清丰县幸福大道营业厅",
    "county": "国网河南省电力公司清丰县供电公司"
  },
  {
    "name": "濮阳市南乐县近德固供电所",
    "account": "4105165438486",
    "lng": "115.2057",
    "lat": "36.0729",
    "capacity": "37.6",
    "power": "濮阳市南乐县近德固供电所",
    "county": "国网河南省电力公司南乐县供电公司"
  },
  {
    "name": "濮阳市范县王楼供电所",
    "account": "4105165483444",
    "lng": "115.4938",
    "lat": "35.851581",
    "capacity": "12.96",
    "power": "濮阳市范县王楼供电所",
    "county": "国网河南省电力公司范县供电公司"
  },
  {
    "name": "濮阳市清丰县高堡供电所",
    "account": "4105165659764",
    "lng": "115.111",
    "lat": "35.89",
    "capacity": "22.68",
    "power": "濮阳市清丰县高堡供电所",
    "county": "国网河南省电力公司清丰县供电公司"
  },
  {
    "name": "濮阳市濮阳县鲁河供电所",
    "account": "4105165658338",
    "lng": "115.04379",
    "lat": "35.7901",
    "capacity": "21.6",
    "power": "濮阳市濮阳县鲁河供电所",
    "county": "国网河南省电力公司濮阳县供电公司"
  },
  {
    "name": "濮阳市濮阳县王称固供电所",
    "account": "4105165682476",
    "lng": "115.04379",
    "lat": "35.7901",
    "capacity": "23.76",
    "power": "濮阳市濮阳县王称固供电所",
    "county": "国网河南省电力公司濮阳县供电公司"
  },
  {
    "name": "濮阳市濮阳县海通供电所",
    "account": "4105165682593",
    "lng": "115.04379",
    "lat": "35.7901",
    "capacity": "36.18",
    "power": "濮阳市濮阳县海通供电所",
    "county": "国网河南省电力公司濮阳县供电公司"
  },
  {
    "name": "濮阳市濮阳县子岸供电所",
    "account": "4105165682939",
    "lng": "115.04379",
    "lat": "35.7901",
    "capacity": "22.68",
    "power": "濮阳市濮阳县子岸供电所",
    "county": "国网河南省电力公司濮阳县供电公司"
  },
  {
    "name": "濮阳市区职工公寓楼",
    "account": "4105165730162",
    "lng": "115.041188",
    "lat": "35.761516",
    "capacity": "32",
    "power": "濮阳市供电公司",
    "county": "国网河南省电力公司濮阳县供电公司"
  },
  {
    "name": "濮阳市台前县供电公司",
    "account": "4105165795701",
    "lng": "115.93885",
    "lat": "35.995191",
    "capacity": "12.96",
    "power": "濮阳市台前县供电公司",
    "county": "国网河南省电力公司台前县供电公司"
  },
  {
    "name": "濮阳市范县供电局办公楼",
    "account": "4105166116204",
    "lng": "115.4938",
    "lat": "35.851581",
    "capacity": "21.06",
    "power": "濮阳市范县供电局",
    "county": "国网濮阳供电公司"
  },
  {
    "name": "濮阳市供电公司光伏车棚（迁建）",
    "account": "4105245490412",
    "lng": "115.041188",
    "lat": "35.761516",
    "capacity": "528",
    "power": "濮阳市供电公司",
    "county": "国网濮阳供电公司"
  },
  {
    "name": "濮阳市中原乙烯办公楼",
    "account": "4105278068224",
    "lng": "114.986862",
    "lat": "35.766078",
    "capacity": "60.5",
    "power": "濮阳市供电公司",
    "county": "国网濮阳供电公司"
  },
  {
    "name": "新乡市区大块供电所",
    "account": "4105164043261",
    "lng": "113.815",
    "lat": "35.36098",
    "capacity": "21.06",
    "power": "新乡市区大块供电所",
    "county": "国网新乡供电公司"
  },
  {
    "name": "新乡市封丘县供电公司",
    "account": "4105163762257",
    "lng": "114.43063",
    "lat": "35.0385",
    "capacity": "16.74",
    "power": "新乡市封丘县供电公司",
    "county": "国网河南省电力公司封丘县供电公司"
  },
  {
    "name": "新乡市获嘉县供电公司",
    "account": "4105164189787",
    "lng": "113.6894",
    "lat": "35.2678",
    "capacity": "50.49",
    "power": "新乡市获嘉县供电公司",
    "county": "国网河南省电力公司获嘉县供电公司"
  },
  {
    "name": "新乡市延津县供电公司",
    "account": "4105165478741",
    "lng": "114.198",
    "lat": "35.14696",
    "capacity": "69.66",
    "power": "新乡市延津县供电公司",
    "county": "国网河南省电力公司延津县供电公司"
  },
  {
    "name": "新乡市辉县高庄供电所",
    "account": "4105161454769",
    "lng": "113.805",
    "lat": "35.4621",
    "capacity": "21.33",
    "power": "新乡市辉县高庄供电所",
    "county": "国网河南省电力公司辉县供电公司"
  },
  {
    "name": "新乡市辉县侯兆川供电所",
    "account": "4105161558490",
    "lng": "113.805",
    "lat": "35.4621",
    "capacity": "31.86",
    "power": "新乡市辉县侯兆川供电所",
    "county": "国网河南省电力公司辉县供电公司"
  },
  {
    "name": "新乡市辉县南村供电所",
    "account": "4105161597358",
    "lng": "113.805",
    "lat": "35.4621",
    "capacity": "14.58",
    "power": "新乡市辉县南村供电所",
    "county": "国网河南省电力公司辉县供电公司"
  },
  {
    "name": "新乡市卫辉市狮豹头供电所",
    "account": "4105163633528",
    "lng": "114.064",
    "lat": "35.398",
    "capacity": "10.26",
    "power": "新乡市卫辉市狮豹头供电所",
    "county": "国网河南省电力公司卫辉市供电公司"
  },
  {
    "name": "新乡市区孟庄供电所",
    "account": "4105164046026",
    "lng": "113.815",
    "lat": "35.36098",
    "capacity": "24.03",
    "power": "新乡市区孟庄供电所",
    "county": "国网新乡供电公司"
  },
  {
    "name": "新乡市区大召营供电所",
    "account": "4105164059156",
    "lng": "113.805",
    "lat": "35.19",
    "capacity": "15.39",
    "power": "新乡市区大召营供电所",
    "county": "国网新乡供电公司"
  },
  {
    "name": "新乡市市区平原供电所",
    "account": "4105164059749",
    "lng": "113.815",
    "lat": "35.36098",
    "capacity": "21.6",
    "power": "新乡市市区平原供电所",
    "county": "国网新乡供电公司"
  },
  {
    "name": "新乡市新乡县翟坡供电所",
    "account": "4105164564203",
    "lng": "113.805",
    "lat": "35.19",
    "capacity": "19.98",
    "power": "新乡市新乡县翟坡供电所",
    "county": "国网河南省电力公司新乡县供电公司"
  },
  {
    "name": "新乡市辉县冀屯供电所",
    "account": "4105164706980",
    "lng": "113.805",
    "lat": "35.4621",
    "capacity": "24.3",
    "power": "新乡市辉县冀屯供电所",
    "county": "国网河南省电力公司辉县供电公司"
  },
  {
    "name": "新乡市新乡县供电公司",
    "account": "4105164837833",
    "lng": "113.805",
    "lat": "35.19",
    "capacity": "20.25",
    "power": "新乡市新乡县供电公司",
    "county": "国网河南省电力公司新乡县供电公司"
  },
  {
    "name": "新乡市新乡县朗公庙供电所",
    "account": "4105164862958",
    "lng": "113.805",
    "lat": "35.19",
    "capacity": "21.06",
    "power": "新乡市新乡县朗公庙供电所",
    "county": "国网河南省电力公司新乡县供电公司"
  },
  {
    "name": "新乡市卫辉市后河供电所",
    "account": "4105165142305",
    "lng": "114.064",
    "lat": "35.398",
    "capacity": "16.2",
    "power": "新乡市卫辉市后河供电所",
    "county": "国网河南省电力公司卫辉市供电公司"
  },
  {
    "name": "新乡市卫辉市庞寨供电所",
    "account": "4105165142422",
    "lng": "114.064",
    "lat": "35.398",
    "capacity": "20.52",
    "power": "新乡市卫辉市庞寨供电所",
    "county": "国网河南省电力公司卫辉市供电公司"
  },
  {
    "name": "新乡市卫辉市顿坊店供电所",
    "account": "4105165142578",
    "lng": "114.064",
    "lat": "35.398",
    "capacity": "21.6",
    "power": "新乡市卫辉市顿坊店供电所",
    "county": "国网河南省电力公司卫辉市供电公司"
  },
  {
    "name": "新乡市原阳县电业局",
    "account": "4105165332238",
    "lng": "113.965",
    "lat": "35.042",
    "capacity": "10",
    "power": "新乡市原阳县电业局",
    "county": "国网河南省电力公司原阳县供电公司"
  },
  {
    "name": "新乡市原阳县电业局",
    "account": "4105165332270",
    "lng": "113.965",
    "lat": "35.042",
    "capacity": "16.7",
    "power": "新乡市原阳县电业局",
    "county": "国网河南省电力公司原阳县供电公司"
  },
  {
    "name": "新乡市原阳县陡门供电所",
    "account": "4105165332368",
    "lng": "113.965",
    "lat": "35.042",
    "capacity": "11.9",
    "power": "新乡市原阳县陡门供电所",
    "county": "国网河南省电力公司原阳县供电公司"
  },
  {
    "name": "商丘市宁陵县华堡供电所",
    "account": "4105164151054",
    "lng": "115.305",
    "lat": "34.4545",
    "capacity": "18.15",
    "power": "商丘市宁陵县华堡供电所",
    "county": "国网河南省电力公司宁陵县供电公司"
  },
  {
    "name": "商丘市宁陵县供电公司",
    "account": "4105164195278",
    "lng": "115.305",
    "lat": "34.4545",
    "capacity": "45.1",
    "power": "商丘市宁陵县供电公司",
    "county": "国网河南省电力公司宁陵县供电公司"
  },
  {
    "name": "商丘市区冯桥供电所",
    "account": "4105164536756",
    "lng": "115.66",
    "lat": "34.39",
    "capacity": "11",
    "power": "商丘市区冯桥供电所",
    "county": "国网商丘供电公司"
  },
  {
    "name": "商丘市民权县北关供电所",
    "account": "4105165962936",
    "lng": "114.969",
    "lat": "34.564399",
    "capacity": "28.6",
    "power": "商丘市民权县北关供电所",
    "county": "国网河南省电力公司民权县供电公司"
  },
  {
    "name": "商丘市民权县龙塘供电所",
    "account": "4105166079668",
    "lng": "114.969",
    "lat": "34.564399",
    "capacity": "19.25",
    "power": "商丘市民权县龙塘供电所",
    "county": "国网河南省电力公司民权县供电公司"
  },
  {
    "name": "商丘市宁陵县柳河供电所",
    "account": "4105164170284",
    "lng": "115.305",
    "lat": "34.4545",
    "capacity": "23.1",
    "power": "商丘市宁陵县柳河供电所",
    "county": "国网河南省电力公司宁陵县供电公司"
  },
  {
    "name": "商丘市睢县蓼堤乡供电所",
    "account": "4105164074371",
    "lng": "115.071995",
    "lat": "34.445296",
    "capacity": "24.2",
    "power": "商丘市睢县蓼堤乡供电所",
    "county": "国网河南省电力公司睢县供电公司"
  },
  {
    "name": "商丘市睢县胡堂乡供电所",
    "account": "4105164074704",
    "lng": "115.071995",
    "lat": "34.445296",
    "capacity": "18.15",
    "power": "商丘市睢县胡堂乡供电所",
    "county": "国网河南省电力公司睢县供电公司"
  },
  {
    "name": "商丘市睢县涧岗供电所",
    "account": "4105164074850",
    "lng": "115.071995",
    "lat": "34.445296",
    "capacity": "16.5",
    "power": "商丘市睢县涧岗供电所",
    "county": "国网河南省电力公司睢县供电公司"
  },
  {
    "name": "商丘虞城县刘集供电所",
    "account": "4105164192107",
    "lng": "115.828001",
    "lat": "34.399294",
    "capacity": "16.5",
    "power": "商丘虞城县刘集供电所",
    "county": "国网河南省电力公司虞城县供电公司"
  },
  {
    "name": "商丘市虞城县黄冢供电所",
    "account": "4105164207799",
    "lng": "115.828001",
    "lat": "34.399294",
    "capacity": "14.3",
    "power": "商丘市虞城县黄冢供电所",
    "county": "国网河南省电力公司虞城县供电公司"
  },
  {
    "name": "商丘市区坞墙供电所",
    "account": "4105164395665",
    "lng": "115.66",
    "lat": "34.39",
    "capacity": "26.95",
    "power": "商丘市区坞墙供电所",
    "county": "国网商丘供电公司"
  },
  {
    "name": "商丘市区高辛供电所",
    "account": "4105164424033",
    "lng": "115.66",
    "lat": "34.39",
    "capacity": "26.4",
    "power": "商丘市区高辛供电所",
    "county": "国网商丘供电公司"
  },
  {
    "name": "商丘市区水池埔供电所",
    "account": "4105164439231",
    "lng": "115.66",
    "lat": "34.39",
    "capacity": "16.5",
    "power": "商丘市区水池埔供电所",
    "county": "国网商丘供电公司"
  },
  {
    "name": "商丘市虞城县杜集镇供电所",
    "account": "4105164451617",
    "lng": "115.828001",
    "lat": "34.399294",
    "capacity": "19.25",
    "power": "商丘市虞城县杜集镇供电所",
    "county": "国网河南省电力公司虞城县供电公司"
  },
  {
    "name": "商丘虞城县刘店供电所",
    "account": "4105164451923",
    "lng": "115.828001",
    "lat": "34.399294",
    "capacity": "19.8",
    "power": "商丘虞城县刘店供电所",
    "county": "国网河南省电力公司虞城县供电公司"
  },
  {
    "name": "商丘虞城县营盘供电所",
    "account": "4105164452199",
    "lng": "115.828001",
    "lat": "34.399294",
    "capacity": "10.45",
    "power": "商丘虞城县营盘供电所",
    "county": "国网河南省电力公司虞城县供电公司"
  },
  {
    "name": "商丘市区郭村供电所",
    "account": "4105164528605",
    "lng": "115.66",
    "lat": "34.39",
    "capacity": "24.75",
    "power": "商丘市区郭村供电所",
    "county": "国网商丘供电公司"
  },
  {
    "name": "商丘市区临河店供电所",
    "account": "4105164532842",
    "lng": "115.66",
    "lat": "34.39",
    "capacity": "11",
    "power": "商丘市区临河店供电所",
    "county": "国网商丘供电公司"
  },
  {
    "name": "商丘市区刘口供电所",
    "account": "4105164547806",
    "lng": "115.66",
    "lat": "34.39",
    "capacity": "17.6",
    "power": "商丘市区刘口供电所",
    "county": "国网商丘供电公司"
  },
  {
    "name": "商丘市区宋集供电所",
    "account": "4105164573432",
    "lng": "115.66",
    "lat": "34.39",
    "capacity": "20.9",
    "power": "商丘市区宋集供电所",
    "county": "国网商丘供电公司"
  },
  {
    "name": "商丘市永城县双桥供电所",
    "account": "4105164640996",
    "lng": "116.449",
    "lat": "33.929",
    "capacity": "28.6",
    "power": "商丘市永城县双桥供电所",
    "county": "国网河南省电力公司永城县供电公司"
  },
  {
    "name": "商丘市永城县龙岗供电所",
    "account": "4105164714305",
    "lng": "116.449",
    "lat": "33.929",
    "capacity": "26",
    "power": "商丘市永城县龙岗供电所",
    "county": "国网河南省电力公司永城县供电公司"
  },
  {
    "name": "商丘市永城县陈集供电所",
    "account": "4105164726445",
    "lng": "116.449",
    "lat": "33.929",
    "capacity": "32.5",
    "power": "商丘市永城县陈集供电所",
    "county": "国网河南省电力公司永城县供电公司"
  },
  {
    "name": "商丘市永城县黄口供电所",
    "account": "4105164738455",
    "lng": "116.449",
    "lat": "33.929",
    "capacity": "27.5",
    "power": "商丘市永城县黄口供电所",
    "county": "国网河南省电力公司永城县供电公司"
  },
  {
    "name": "商丘市虞城县杨集镇供电所",
    "account": "4105165476279",
    "lng": "115.828001",
    "lat": "34.399294",
    "capacity": "11.55",
    "power": "商丘市虞城县杨集镇供电所",
    "county": "国网河南省电力公司虞城县供电公司"
  },
  {
    "name": "商丘市民权县颜集供电所",
    "account": "4105165477041",
    "lng": "115.14075",
    "lat": "34.644832",
    "capacity": "30.25",
    "power": "商丘市民权县颜集供电所",
    "county": "国网河南省电力公司民权县供电公司"
  },
  {
    "name": "商丘市民权县孙六镇供电所",
    "account": "4105165747858",
    "lng": "115.14075",
    "lat": "34.644832",
    "capacity": "37.95",
    "power": "商丘市民权县孙六镇供电所",
    "county": "国网河南省电力公司民权县供电公司"
  },
  {
    "name": "商丘市民权县人和供电所",
    "account": "4105165761184",
    "lng": "115.14075",
    "lat": "34.644832",
    "capacity": "31.9",
    "power": "商丘市民权县人和供电所",
    "county": "国网河南省电力公司民权县供电公司"
  },
  {
    "name": "平顶山市鲁山县让河供电营业厅",
    "account": "4105165504442",
    "lng": "112.79778",
    "lat": "33.876391",
    "capacity": "20.9",
    "power": "平顶山市鲁山县让河供电营业厅",
    "county": "国网河南省电力公司鲁山县供电公司"
  },
  {
    "name": "平顶山市鲁山张店供电所",
    "account": "4105165506624",
    "lng": "112.79778",
    "lat": "33.876391",
    "capacity": "35.2",
    "power": "平顶山市鲁山张店供电所",
    "county": "国网河南省电力公司鲁山县供电公司"
  },
  {
    "name": "平顶山市鲁山县马楼供电所",
    "account": "4105165508183",
    "lng": "112.79778",
    "lat": "33.876391",
    "capacity": "23.1",
    "power": "平顶山市鲁山县马楼供电所",
    "county": "国网河南省电力公司鲁山县供电公司"
  },
  {
    "name": "平顶山市鲁山县辛集乡供电所",
    "account": "4105165510630",
    "lng": "112.79778",
    "lat": "33.876391",
    "capacity": "9.35",
    "power": "平顶山市鲁山县辛集乡供电所",
    "county": "国网河南省电力公司鲁山县供电公司"
  },
  {
    "name": "平顶山市鲁山县董周供电所",
    "account": "4105165519927",
    "lng": "112.79778",
    "lat": "33.876391",
    "capacity": "18.7",
    "power": "平顶山市鲁山县董周供电所",
    "county": "国网河南省电力公司鲁山县供电公司"
  },
  {
    "name": "平顶山市鲁山县张官营供电所",
    "account": "4105165520048",
    "lng": "112.79778",
    "lat": "33.876391",
    "capacity": "30.25",
    "power": "平顶山市鲁山县张官营供电所",
    "county": "国网河南省电力公司鲁山县供电公司"
  },
  {
    "name": "平顶山市鲁山县电业局",
    "account": "4105166010564",
    "lng": "112.79778",
    "lat": "33.876391",
    "capacity": "56.65",
    "power": "平顶山市鲁山县电业局",
    "county": "国网河南省电力公司鲁山县供电公司"
  },
  {
    "name": "平顶山市宝丰县商酒务供电所",
    "account": "4105165414150",
    "lng": "113.0706",
    "lat": "33.860456",
    "capacity": "16.5",
    "power": "平顶山市宝丰县商酒务供电所",
    "county": "国网河南省电力公司宝丰县供电公司"
  },
  {
    "name": "平顶山市宝丰县闹店供电所",
    "account": "4105165416198",
    "lng": "113.0706",
    "lat": "33.860456",
    "capacity": "16.5",
    "power": "平顶山市宝丰县闹店供电所",
    "county": "国网河南省电力公司宝丰县供电公司"
  },
  {
    "name": "平顶山市宝丰县李庄供电所",
    "account": "4105165426056",
    "lng": "113.0706",
    "lat": "33.860456",
    "capacity": "15.4",
    "power": "平顶山市宝丰县李庄供电所",
    "county": "国网河南省电力公司宝丰县供电公司"
  },
  {
    "name": "平顶山市宝丰县石桥供电所",
    "account": "4105165442896",
    "lng": "113.0706",
    "lat": "33.860456",
    "capacity": "15.4",
    "power": "平顶山市宝丰县石桥供电所",
    "county": "国网河南省电力公司宝丰县供电公司"
  },
  {
    "name": "平顶山市宝丰县城关供电所",
    "account": "4105165449406",
    "lng": "113.0706",
    "lat": "33.860456",
    "capacity": "33.55",
    "power": "平顶山市宝丰县城关供电所",
    "county": "国网河南省电力公司宝丰县供电公司"
  },
  {
    "name": "平顶山市汝州县焦村供电所",
    "account": "4105164418988",
    "lng": "112.85",
    "lat": "34.21",
    "capacity": "17.6",
    "power": "平顶山市汝州县焦村供电所",
    "county": "国网河南省电力公司汝州县供电公司"
  },
  {
    "name": "平顶山市汝州市尚庄供电所",
    "account": "4105164438300",
    "lng": "112.85",
    "lat": "34.21",
    "capacity": "16.5",
    "power": "平顶山市汝州市尚庄供电所",
    "county": "国网河南省电力公司汝州县供电公司"
  },
  {
    "name": "平顶山市汝州市蟒川供电所",
    "account": "4105164491246",
    "lng": "112.85",
    "lat": "34.21",
    "capacity": "26.4",
    "power": "平顶山市汝州市蟒川供电所",
    "county": "国网河南省电力公司汝州县供电公司"
  },
  {
    "name": "平顶山市汝州县小屯供电所",
    "account": "4105164497808",
    "lng": "112.85",
    "lat": "34.21",
    "capacity": "23.65",
    "power": "平顶山市汝州县小屯供电所",
    "county": "国网河南省电力公司汝州县供电公司"
  },
  {
    "name": "平顶山市汝州县寄料供电所",
    "account": "4105164503099",
    "lng": "112.85",
    "lat": "34.21",
    "capacity": "19.25",
    "power": "平顶山市汝州县寄料供电所",
    "county": "国网河南省电力公司汝州县供电公司"
  },
  {
    "name": "平顶山市汝州县庙下供电所",
    "account": "4105164528722",
    "lng": "112.85",
    "lat": "34.21",
    "capacity": "20.9",
    "power": "平顶山市汝州县庙下供电所",
    "county": "国网河南省电力公司汝州县供电公司"
  },
  {
    "name": "平顶山市汝州市临汝镇供电营业厅",
    "account": "4105164532116",
    "lng": "112.85",
    "lat": "34.21",
    "capacity": "25.3",
    "power": "平顶山市汝州市临汝镇供电营业厅",
    "county": "国网河南省电力公司汝州县供电公司"
  },
  {
    "name": "平顶山市汝州县夏店乡供电所",
    "account": "4105164533210",
    "lng": "112.85",
    "lat": "34.21",
    "capacity": "17.6",
    "power": "平顶山市汝州县夏店乡供电所",
    "county": "国网河南省电力公司汝州县供电公司"
  },
  {
    "name": "平顶山市汝州县陵头镇供电所",
    "account": "4105164534330",
    "lng": "112.85",
    "lat": "34.21",
    "capacity": "25.85",
    "power": "平顶山市汝州县陵头镇供电所",
    "county": "国网河南省电力公司汝州县供电公司"
  },
  {
    "name": "平顶山市区营销楼",
    "account": "4105164868578",
    "lng": "113.3201",
    "lat": "33.7259",
    "capacity": "39.05",
    "power": "平顶山供电公司",
    "county": "国网平顶山供电公司"
  },
  {
    "name": "平顶山市洪庄杨供电所",
    "account": "4105165278543",
    "lng": "113.3497",
    "lat": "33.73",
    "capacity": "32.45",
    "power": "平顶山市洪庄杨供电所",
    "county": "国网平顶山供电公司"
  },
  {
    "name": "平顶山市郏县长桥供电所",
    "account": "4105165289606",
    "lng": "113.23",
    "lat": "33.97",
    "capacity": "28.6",
    "power": "平顶山市郏县长桥供电所",
    "county": "国网河南省电力公司郏县供电公司"
  },
  {
    "name": "平顶山市叶县夏李乡供电所",
    "account": "4105165412516",
    "lng": "113.3655",
    "lat": "33.62",
    "capacity": "33",
    "power": "平顶山市叶县夏李乡供电所",
    "county": "国网河南省电力公司叶县供电公司"
  },
  {
    "name": "平顶山市叶县廉村供电营业厅",
    "account": "4105165416765",
    "lng": "113.3655",
    "lat": "33.62",
    "capacity": "26.95",
    "power": "平顶山市叶县廉村供电营业厅",
    "county": "国网河南省电力公司叶县供电公司"
  },
  {
    "name": "平顶山市叶县广安路电业局",
    "account": "4105165452637",
    "lng": "113.3655",
    "lat": "33.62",
    "capacity": "27.5",
    "power": "平顶山市叶县广安路电业局",
    "county": "国网河南省电力公司叶县供电公司"
  },
  {
    "name": "平顶山市叶县县保安乡供电所",
    "account": "4105165476442",
    "lng": "113.3655",
    "lat": "33.62",
    "capacity": "17.6",
    "power": "平顶山市叶县县保安乡供电所",
    "county": "国网河南省电力公司叶县供电公司"
  },
  {
    "name": "平顶山市华辰供电公司",
    "account": "4105165284669",
    "lng": "113.23",
    "lat": "33.97",
    "capacity": "69.85",
    "power": "平顶山市华辰供电公司",
    "county": "国网平顶山供电公司"
  },
  {
    "name": "平顶山市遵化供电所",
    "account": "4105165448810",
    "lng": "113.23",
    "lat": "33.97",
    "capacity": "48.4",
    "power": "平顶山市遵化供电所",
    "county": "国网平顶山供电公司"
  },
  {
    "name": "平顶山市新城区薛庄供电所",
    "account": "4105165526583",
    "lng": "113.23",
    "lat": "33.97",
    "capacity": "22.55",
    "power": "平顶山市新城区薛庄供电所",
    "county": "国网平顶山供电公司"
  },
  {
    "name": "平顶山市汝州市杨楼供电所",
    "account": "4105164515663",
    "lng": "112.85",
    "lat": "34.21",
    "capacity": "17.05",
    "power": "平顶山市汝州市杨楼供电所",
    "county": "国网河南省电力公司汝州县供电公司"
  },
  {
    "name": "平顶山高皇所",
    "account": "4105165592344",
    "lng": "113.3201",
    "lat": "33.7259",
    "capacity": "14.3",
    "power": "平顶山高皇供电所",
    "county": "国网平顶山供电公司"
  },
  {
    "name": "平顶山市汝州市城区供电部",
    "account": "4105164425906",
    "lng": "112.85",
    "lat": "34.21",
    "capacity": "27.5",
    "power": "平顶山市汝州市供电公司",
    "county": "国网河南省电力公司汝州县供电公司"
  },
  {
    "name": "平顶山市汝州县温泉供电所",
    "account": "4105254766708",
    "lng": "112.85",
    "lat": "34.21",
    "capacity": "17.6",
    "power": "平顶山市汝州县温泉供电所",
    "county": "国网河南省电力公司汝州县供电公司"
  },
  {
    "name": "洛阳市栾川县冷水供电所",
    "account": "4105165195585",
    "lng": "111.64",
    "lat": "33.78",
    "capacity": "19.44",
    "power": "洛阳市栾川县冷水供电所",
    "county": "国网河南省电力公司栾川县供电公司"
  },
  {
    "name": "洛阳市区环城供电所",
    "account": "4105165568378",
    "lng": "112.47",
    "lat": "34.58",
    "capacity": "9.72",
    "power": "洛阳市区环城供电所",
    "county": "国网洛阳供电公司"
  },
  {
    "name": "洛阳市汝阳县上店供电所",
    "account": "4105164667364",
    "lng": "112.47",
    "lat": "34.15",
    "capacity": "12.96",
    "power": "洛阳市汝阳县上店供电所",
    "county": "国网河南省电力公司汝阳县供电公司"
  },
  {
    "name": "洛阳市栾川县叫河供电所",
    "account": "4105165244623",
    "lng": "111.64",
    "lat": "33.78",
    "capacity": "12.96",
    "power": "洛阳市栾川县叫河供电所",
    "county": "国网河南省电力公司栾川县供电公司"
  },
  {
    "name": "洛阳市宜阳县丰李供电所",
    "account": "4105166086497",
    "lng": "112.03",
    "lat": "34.52",
    "capacity": "16",
    "power": "洛阳市宜阳县丰李供电所",
    "county": "国网河南省电力公司宜阳县供电公司"
  },
  {
    "name": "洛阳市孟津县城关供电所",
    "account": "4105166096081",
    "lng": "112.44",
    "lat": "34.83",
    "capacity": "16.2",
    "power": "洛阳市孟津县城关供电所",
    "county": "国网河南省电力公司孟津县供电公司"
  },
  {
    "name": "洛阳市孟津县平乐供电所",
    "account": "4105166096371",
    "lng": "112.44",
    "lat": "34.83",
    "capacity": "10.8",
    "power": "洛阳市孟津县平乐供电所",
    "county": "国网河南省电力公司孟津县供电公司"
  },
  {
    "name": "洛阳市洛宁县河底供电所",
    "account": "4105166097156",
    "lng": "111.63",
    "lat": "34.39",
    "capacity": "9.2",
    "power": "洛阳市洛宁县河底供电所",
    "county": "国网河南省电力公司洛宁县供电公司"
  },
  {
    "name": "洛阳市孟津县送庄供电所",
    "account": "4105166107512",
    "lng": "112.44",
    "lat": "34.83",
    "capacity": "27",
    "power": "洛阳市孟津县送庄供电所",
    "county": "国网河南省电力公司孟津县供电公司"
  },
  {
    "name": "洛阳市孟津县黄鹿山供电所",
    "account": "4105166109055",
    "lng": "112.44",
    "lat": "34.83",
    "capacity": "21.6",
    "power": "洛阳市孟津县黄鹿山供电所",
    "county": "国网河南省电力公司孟津县供电公司"
  },
  {
    "name": "洛阳市孟津县朝阳供电所",
    "account": "4105166109648",
    "lng": "112.44",
    "lat": "34.83",
    "capacity": "21.6",
    "power": "洛阳市孟津县朝阳供电所",
    "county": "国网河南省电力公司孟津县供电公司"
  },
  {
    "name": "洛阳市新安县仓头供电所",
    "account": "4105164079259",
    "lng": "112.14",
    "lat": "34.7266",
    "capacity": "10.8",
    "power": "洛阳市新安县仓头供电所",
    "county": "国网河南省电力公司新安县供电公司"
  },
  {
    "name": "洛阳市新安县正村供电所",
    "account": "4105164084851",
    "lng": "112.14",
    "lat": "34.7266",
    "capacity": "21.6",
    "power": "洛阳市新安县正村供电所",
    "county": "国网河南省电力公司新安县供电公司"
  },
  {
    "name": "洛阳市新安县五头供电所",
    "account": "4105164100304",
    "lng": "112.14",
    "lat": "34.7266",
    "capacity": "17.28",
    "power": "洛阳市新安县五头供电所",
    "county": "国网河南省电力公司新安县供电公司"
  },
  {
    "name": "洛阳市新安县石寺供电所",
    "account": "4105164100971",
    "lng": "112.14",
    "lat": "34.7266",
    "capacity": "90.45",
    "power": "洛阳市新安县石寺供电所",
    "county": "国网河南省电力公司新安县供电公司"
  },
  {
    "name": "洛阳市新安县铁门供电所",
    "account": "4105164103202",
    "lng": "112.14",
    "lat": "34.7266",
    "capacity": "10.8",
    "power": "洛阳市新安县铁门供电所",
    "county": "国网河南省电力公司新安县供电公司"
  },
  {
    "name": "洛阳市新安县供电公司办公楼",
    "account": "4105164122184",
    "lng": "112.14",
    "lat": "34.7266",
    "capacity": "46.98",
    "power": "洛阳市新安县供电公司",
    "county": "国网河南省电力公司新安县供电公司"
  },
  {
    "name": "洛阳市新安县供电公司宾馆楼",
    "account": "4105164194770",
    "lng": "112.14",
    "lat": "34.7266",
    "capacity": "39.42",
    "power": "洛阳市新安县供电公司",
    "county": "国网河南省电力公司新安县供电公司"
  },
  {
    "name": "洛阳市宜阳县高村供电所",
    "account": "4105165476165",
    "lng": "112.03",
    "lat": "34.52",
    "capacity": "10.8",
    "power": "洛阳市宜阳县高村供电所",
    "county": "国网河南省电力公司宜阳县供电公司"
  },
  {
    "name": "洛阳市宜阳县三乡供电所",
    "account": "4105165664050",
    "lng": "112.03",
    "lat": "34.52",
    "capacity": "11",
    "power": "洛阳市宜阳县三乡供电所",
    "county": "国网河南省电力公司宜阳县供电公司"
  },
  {
    "name": "洛阳市宜阳县赵堡镇供电所",
    "account": "4105165673638",
    "lng": "112.03",
    "lat": "34.52",
    "capacity": "32.4",
    "power": "洛阳市宜阳县赵堡镇供电所",
    "county": "国网河南省电力公司宜阳县供电公司"
  },
  {
    "name": "洛阳市嵩县黄庄供电所",
    "account": "4105165943588",
    "lng": "112.1",
    "lat": "34.137",
    "capacity": "40.5",
    "power": "洛阳市嵩县黄庄供电所",
    "county": "国网河南省电力公司嵩县供电公司"
  },
  {
    "name": "洛阳市嵩县闫庄供电所",
    "account": "4105165943953",
    "lng": "112.1",
    "lat": "34.137",
    "capacity": "10.8",
    "power": "洛阳市嵩县闫庄供电所",
    "county": "国网河南省电力公司嵩县供电公司"
  },
  {
    "name": "洛阳市嵩县供电公司",
    "account": "4105165945832",
    "lng": "112.1",
    "lat": "34.137",
    "capacity": "21.6",
    "power": "洛阳市嵩县供电公司",
    "county": "国网河南省电力公司嵩县供电公司"
  },
  {
    "name": "洛阳市洛宁县小界供电所",
    "account": "4105166081724",
    "lng": "111.63",
    "lat": "34.39",
    "capacity": "14.4",
    "power": "洛阳市洛宁县小界供电所",
    "county": "国网河南省电力公司洛宁县供电公司"
  },
  {
    "name": "洛阳市洛宁县马店供电所",
    "account": "4105166081809",
    "lng": "111.63",
    "lat": "34.39",
    "capacity": "32.4",
    "power": "洛阳市洛宁县马店供电所",
    "county": "国网河南省电力公司洛宁县供电公司"
  },
  {
    "name": "洛阳市伊川县鸦岭供电所",
    "account": "4105166085566",
    "lng": "112.45",
    "lat": "34.45",
    "capacity": "11.88",
    "power": "洛阳市伊川县鸦岭供电所",
    "county": "国网河南省电力公司洛宁县供电公司"
  },
  {
    "name": "洛阳市洛宁县大原供电所",
    "account": "4105166093936",
    "lng": "111.63",
    "lat": "34.39",
    "capacity": "25.11",
    "power": "洛阳市洛宁县大原供电所",
    "county": "国网河南省电力公司洛宁县供电公司"
  },
  {
    "name": "洛阳市洛宁县上戈供电所",
    "account": "4105166094043",
    "lng": "111.63",
    "lat": "34.39",
    "capacity": "15.93",
    "power": "洛阳市洛宁县上戈供电所",
    "county": "国网河南省电力公司洛宁县供电公司"
  },
  {
    "name": "洛阳市伊川县吕店供电所",
    "account": "4105166094577",
    "lng": "112.45",
    "lat": "34.45",
    "capacity": "13.5",
    "power": "洛阳市伊川县吕店供电所",
    "county": "国网河南省电力公司伊川县供电公司"
  },
  {
    "name": "洛阳市汝阳县内埠供电所",
    "account": "4105166094636",
    "lng": "112.47",
    "lat": "34.15",
    "capacity": "26.92",
    "power": "洛阳市汝阳县内埠供电所",
    "county": "国网河南省电力公司汝阳县供电公司"
  },
  {
    "name": "洛阳市汝阳县小店供电所",
    "account": "4105166094649",
    "lng": "112.47",
    "lat": "34.15",
    "capacity": "36.72",
    "power": "洛阳市汝阳县小店供电所",
    "county": "国网河南省电力公司汝阳县供电公司"
  },
  {
    "name": "洛阳市汝阳县三屯供电所",
    "account": "4105166094939",
    "lng": "112.47",
    "lat": "34.15",
    "capacity": "28",
    "power": "洛阳市汝阳县三屯供电所",
    "county": "国网河南省电力公司汝阳县供电公司"
  },
  {
    "name": "洛阳市伊川县江左供电所",
    "account": "4105166095219",
    "lng": "112.45",
    "lat": "34.45",
    "capacity": "29.7",
    "power": "洛阳市伊川县江左供电所",
    "county": "国网河南省电力公司伊川县供电公司"
  },
  {
    "name": "洛阳市宜阳县花果山供电所",
    "account": "4105166095310",
    "lng": "112.03",
    "lat": "34.52",
    "capacity": "11.88",
    "power": "洛阳市宜阳县花果山供电所",
    "county": "国网河南省电力公司宜阳县供电公司"
  },
  {
    "name": "洛阳市伊川县高山供电所",
    "account": "4105166095336",
    "lng": "112.45",
    "lat": "34.45",
    "capacity": "39.69",
    "power": "洛阳市伊川县高山供电所",
    "county": "国网河南省电力公司伊川县供电公司"
  },
  {
    "name": "洛阳市伊川县水寨供电所",
    "account": "4105166095440",
    "lng": "112.45",
    "lat": "34.45",
    "capacity": "34.02",
    "power": "洛阳市伊川县水寨供电所",
    "county": "国网河南省电力公司伊川县供电公司"
  },
  {
    "name": "洛阳市偃师市佛光供电所",
    "account": "4105166095639",
    "lng": "112.44",
    "lat": "34.67",
    "capacity": "19.44",
    "power": "洛阳市偃师市佛光供电所",
    "county": "国网河南省电力公司偃师市供电公司"
  },
  {
    "name": "洛阳市偃师市寇店供电所",
    "account": "4105166095668",
    "lng": "112.44",
    "lat": "34.67",
    "capacity": "22.68",
    "power": "洛阳市偃师市寇店供电所",
    "county": "国网河南省电力公司偃师市供电公司"
  },
  {
    "name": "洛阳市偃师市邙岭供电所",
    "account": "4105166095815",
    "lng": "112.44",
    "lat": "34.67",
    "capacity": "21.6",
    "power": "洛阳市偃师市邙岭供电所",
    "county": "国网河南省电力公司偃师市供电公司"
  },
  {
    "name": "洛阳市宜阳县樊村镇供电所",
    "account": "4105166098364",
    "lng": "112.03",
    "lat": "34.52",
    "capacity": "17.82",
    "power": "洛阳市宜阳县樊村镇供电所",
    "county": "国网河南省电力公司宜阳县供电公司"
  },
  {
    "name": "洛阳市伊川县供电公司",
    "account": "4105167543432",
    "lng": "112.45",
    "lat": "34.45",
    "capacity": "51.3",
    "power": "洛阳市伊川县供电公司",
    "county": "国网河南省电力公司伊川县供电公司"
  },
  {
    "name": "三门峡市卢氏县莘川供电所",
    "account": "4105164424570",
    "lng": "111.08",
    "lat": "34.72",
    "capacity": "17.82",
    "power": "三门峡市卢氏县莘川供电所",
    "county": "国网河南省电力公司卢氏县供电公司"
  },
  {
    "name": "三门峡市卢氏县沙河供电所",
    "account": "4105164526739",
    "lng": "111.08",
    "lat": "34.72",
    "capacity": "8.64",
    "power": "三门峡市卢氏县沙河供电所",
    "county": "国网河南省电力公司卢氏县供电公司"
  },
  {
    "name": "三门峡市灵宝县阳店供电所",
    "account": "4105165342561",
    "lng": "110.91",
    "lat": "34.54",
    "capacity": "21.06",
    "power": "三门峡市灵宝县阳店供电所",
    "county": "国网河南省电力公司灵宝县供电公司"
  },
  {
    "name": "三门峡市灵宝县苏村供电所",
    "account": "4105165343883",
    "lng": "110.91",
    "lat": "34.54",
    "capacity": "10.8",
    "power": "三门峡市灵宝县苏村供电所",
    "county": "国网河南省电力公司灵宝县供电公司"
  },
  {
    "name": "三门峡市湖滨区会兴供电所",
    "account": "4105165479526",
    "lng": "111.189",
    "lat": "34.79",
    "capacity": "8.1",
    "power": "三门峡市湖滨区会兴供电所",
    "county": "国网三门峡供电公司"
  },
  {
    "name": "三门峡市湖滨区交口供电所",
    "account": "4105165503830",
    "lng": "111.189",
    "lat": "34.79",
    "capacity": "21.6",
    "power": "三门峡市湖滨区交口供电所",
    "county": "国网三门峡供电公司"
  },
  {
    "name": "三门峡渑池县洪阳供电所",
    "account": "4105165506682",
    "lng": "111.78",
    "lat": "34.758",
    "capacity": "11.88",
    "power": "三门峡渑池县洪阳供电所",
    "county": "国网河南省电力公司渑池县供电公司"
  },
  {
    "name": "三门峡渑池县南村供电所",
    "account": "4105165511170",
    "lng": "111.78",
    "lat": "34.758",
    "capacity": "14.04",
    "power": "三门峡渑池县南村供电所",
    "county": "国网河南省电力公司渑池县供电公司"
  },
  {
    "name": "三门峡市陕州区观音堂供电所",
    "account": "4105164918635",
    "lng": "111.78",
    "lat": "34.758",
    "capacity": "18.9",
    "power": "三门峡市陕州区观音堂供电所",
    "county": "国网三门峡陕州供电公司"
  },
  {
    "name": "三门峡市陕州区西张村供电所",
    "account": "4105164920179",
    "lng": "111.08",
    "lat": "34.72",
    "capacity": "17.82",
    "power": "三门峡市陕州区西张村供电所",
    "county": "国网三门峡陕州供电公司"
  },
  {
    "name": "三门峡市陕县城西供电所",
    "account": "4105164923123",
    "lng": "111.08",
    "lat": "34.72",
    "capacity": "16.74",
    "power": "三门峡市陕县城西供电所",
    "county": "国网三门峡陕州供电公司"
  },
  {
    "name": "三门峡市陕州区张湾供电所",
    "account": "4105164924605",
    "lng": "111.08",
    "lat": "34.72",
    "capacity": "10.8",
    "power": "三门峡市陕州区张湾供电所",
    "county": "国网三门峡陕州供电公司"
  },
  {
    "name": "三门峡市陕州区菜园供电所",
    "account": "4105164925073",
    "lng": "111.08",
    "lat": "34.72",
    "capacity": "10.8",
    "power": "三门峡市陕州区菜园供电所",
    "county": "国网三门峡陕州供电公司"
  },
  {
    "name": "三门峡市湖滨区磁钟供电所",
    "account": "4105164163699",
    "lng": "111.189",
    "lat": "34.79",
    "capacity": "10",
    "power": "三门峡市湖滨区磁钟供电所",
    "county": "国网三门峡供电公司"
  },
  {
    "name": "三门峡市陕州区李村供电所",
    "account": "4105164898816",
    "lng": "111.08",
    "lat": "34.72",
    "capacity": "9.18",
    "power": "三门峡市陕州区李村供电所",
    "county": "国网三门峡陕州供电公司"
  },
  {
    "name": "三门峡市陕州区张茅供电所",
    "account": "4105164906540",
    "lng": "111.08",
    "lat": "34.72",
    "capacity": "20.52",
    "power": "三门峡市陕州区张茅供电所",
    "county": "国网三门峡陕州供电公司"
  },
  {
    "name": "三门峡市渑池县英豪供电所",
    "account": "4105165486805",
    "lng": "111.08",
    "lat": "34.72",
    "capacity": "24.3",
    "power": "三门峡市渑池县英豪供电所",
    "county": "国网河南省电力公司渑池县供电公司"
  },
  {
    "name": "三门峡市渑池县坡头供电所",
    "account": "4105165522969",
    "lng": "111.08",
    "lat": "34.72",
    "capacity": "18.36",
    "power": "三门峡市渑池县坡头供电所",
    "county": "国网河南省电力公司渑池县供电公司"
  },
  {
    "name": "三门峡市卢氏文峪供电局",
    "account": "4105165250664",
    "lng": "111.08",
    "lat": "34.72",
    "capacity": "11.88",
    "power": "三门峡市卢氏文峪供电局",
    "county": "国网河南省电力公司卢氏县供电公司"
  },
  {
    "name": "周口市太康县张集乡供电所",
    "account": "4105165609192",
    "lng": "114.866605",
    "lat": "34.022419",
    "capacity": "33.55",
    "power": "周口市太康县张集乡供电所",
    "county": "国网河南省电力公司太康县供电公司"
  },
  {
    "name": "周口市太康县大许寨乡供电所",
    "account": "4105165697788",
    "lng": "114.866605",
    "lat": "34.022419",
    "capacity": "35.2",
    "power": "周口市太康县大许寨乡供电所",
    "county": "国网河南省电力公司太康县供电公司"
  },
  {
    "name": "周口市鹿邑县王皮溜乡供电所",
    "account": "4105164906074",
    "lng": "115.4928099",
    "lat": "33.876096",
    "capacity": "25.85",
    "power": "周口市鹿邑县王皮溜乡供电所",
    "county": "国网河南省电力公司鹿邑县供电公司"
  },
  {
    "name": "周口市沈丘县留福镇供电所",
    "account": "4105164986056",
    "lng": "115.216075",
    "lat": "33.306522",
    "capacity": "26.95",
    "power": "周口市沈丘县留福镇供电所",
    "county": "国网河南省电力公司沈丘县供电公司"
  },
  {
    "name": "周口市沈丘县电业城郊一所",
    "account": "4105164996985",
    "lng": "115.216075",
    "lat": "33.306522",
    "capacity": "19.8",
    "power": "周口市沈丘县电业城郊一所",
    "county": "国网河南省电力公司沈丘县供电公司"
  },
  {
    "name": "周口市沈丘县卞路口供电所",
    "account": "4105164999900",
    "lng": "115.216075",
    "lat": "33.306522",
    "capacity": "13.2",
    "power": "周口市沈丘县卞路口供电所",
    "county": "国网河南省电力公司沈丘县供电公司"
  },
  {
    "name": "周口市沈丘县纸店镇供电所",
    "account": "4105165002236",
    "lng": "115.216075",
    "lat": "33.306522",
    "capacity": "22",
    "power": "周口市沈丘县纸店镇供电所",
    "county": "国网河南省电力公司沈丘县供电公司"
  },
  {
    "name": "周口市鹿邑县任集供电所",
    "account": "4105165039227",
    "lng": "115.4928099",
    "lat": "33.876096",
    "capacity": "13.75",
    "power": "周口市鹿邑县任集供电所",
    "county": "国网河南省电力公司鹿邑县供电公司"
  },
  {
    "name": "周口市鹿邑县张店供电所",
    "account": "4105165043002",
    "lng": "115.4928099",
    "lat": "33.876096",
    "capacity": "19.8",
    "power": "周口市鹿邑县张店供电所",
    "county": "国网河南省电力公司鹿邑县供电公司"
  },
  {
    "name": "周口市鹿邑县杨湖口供电所",
    "account": "4105165046740",
    "lng": "115.4928099",
    "lat": "33.876096",
    "capacity": "12.1",
    "power": "周口市鹿邑县杨湖口供电所",
    "county": "国网河南省电力公司鹿邑县供电公司"
  },
  {
    "name": "周口市鹿邑县辛集供电所",
    "account": "4105165047394",
    "lng": "115.4928099",
    "lat": "33.876096",
    "capacity": "18.15",
    "power": "周口市鹿邑县辛集供电所",
    "county": "国网河南省电力公司鹿邑县供电公司"
  },
  {
    "name": "周口市鹿邑县中心供电所",
    "account": "4105165052202",
    "lng": "115.4928099",
    "lat": "33.876096",
    "capacity": "15.4",
    "power": "周口市鹿邑县中心供电所",
    "county": "国网河南省电力公司鹿邑县供电公司"
  },
  {
    "name": "周口市沈丘县刘湾供电所",
    "account": "4105165056969",
    "lng": "115.216075",
    "lat": "33.306522",
    "capacity": "13.2",
    "power": "周口市沈丘县刘湾供电所",
    "county": "国网河南省电力公司沈丘县供电公司"
  },
  {
    "name": "周口市沈丘县电业局",
    "account": "4105165057917",
    "lng": "115.216075",
    "lat": "33.306522",
    "capacity": "52.8",
    "power": "周口市沈丘县电业局",
    "county": "国网河南省电力公司沈丘县供电公司"
  },
  {
    "name": "周口市沈丘县付井供电所",
    "account": "4105165058848",
    "lng": "115.216075",
    "lat": "33.306522",
    "capacity": "17.6",
    "power": "周口市沈丘县付井供电所",
    "county": "国网河南省电力公司沈丘县供电公司"
  },
  {
    "name": "周口市沈丘县北杨集供电所",
    "account": "4105165061545",
    "lng": "115.216075",
    "lat": "33.306522",
    "capacity": "12.1",
    "power": "周口市沈丘县北杨集供电所",
    "county": "国网河南省电力公司沈丘县供电公司"
  },
  {
    "name": "周口市沈丘县洪山乡供电所",
    "account": "4105165063121",
    "lng": "115.216075",
    "lat": "33.306522",
    "capacity": "21.45",
    "power": "周口市沈丘县洪山乡供电所",
    "county": "国网河南省电力公司沈丘县供电公司"
  },
  {
    "name": "周口市沈丘县白集供电所",
    "account": "4105165063828",
    "lng": "115.216075",
    "lat": "33.306522",
    "capacity": "16.5",
    "power": "周口市沈丘县白集供电所",
    "county": "国网河南省电力公司沈丘县供电公司"
  },
  {
    "name": "周口市淮阳区鲁台镇供电所",
    "account": "4105165327388",
    "lng": "115.031792",
    "lat": "33.800474",
    "capacity": "18.15",
    "power": "周口市淮阳区鲁台镇供电所",
    "county": "国网周口供电公司"
  },
  {
    "name": "周口市项城市新桥供电所",
    "account": "4105165333648",
    "lng": "114.913661",
    "lat": "33.441374",
    "capacity": "17.6",
    "power": "周口市项城市新桥供电所",
    "county": "国网河南省电力公司项城市供电公司"
  },
  {
    "name": "周口市项城市官会供电所",
    "account": "4105165418963",
    "lng": "114.913661",
    "lat": "33.441374",
    "capacity": "21.45",
    "power": "周口市项城市官会供电所",
    "county": "国网河南省电力公司项城市供电公司"
  },
  {
    "name": "周口市项城市丁集供电所",
    "account": "4105165423174",
    "lng": "114.913661",
    "lat": "33.441374",
    "capacity": "42.9",
    "power": "周口市项城市丁集供电所",
    "county": "国网河南省电力公司项城市供电公司"
  },
  {
    "name": "周口市项城市王明口供电所",
    "account": "4105165424887",
    "lng": "114.913661",
    "lat": "33.441374",
    "capacity": "37.95",
    "power": "周口市项城市王明口供电所",
    "county": "国网河南省电力公司项城市供电公司"
  },
  {
    "name": "周口市项城市郑郭供电所",
    "account": "4105165425646",
    "lng": "114.913661",
    "lat": "33.441374",
    "capacity": "20.9",
    "power": "周口市项城市郑郭供电所",
    "county": "国网河南省电力公司项城市供电公司"
  },
  {
    "name": "周口市项城高寺供电所",
    "account": "4105165426711",
    "lng": "114.913661",
    "lat": "33.441374",
    "capacity": "9.9",
    "power": "周口市项城高寺供电所",
    "county": "国网河南省电力公司项城市供电公司"
  },
  {
    "name": "周口市项城城西供电所",
    "account": "4105165447370",
    "lng": "114.913661",
    "lat": "33.441374",
    "capacity": "18.15",
    "power": "周口市项城城西供电所",
    "county": "国网河南省电力公司项城市供电公司"
  },
  {
    "name": "周口市淮阳县葛店供电所",
    "account": "4105165448894",
    "lng": "115.031792",
    "lat": "33.800474",
    "capacity": "17.6",
    "power": "周口市淮阳县葛店供电所",
    "county": "国网河南省电力公司淮阳县供电公司"
  },
  {
    "name": "周口市郸城县宁平镇供电所",
    "account": "4105165456437",
    "lng": "115.2166",
    "lat": "33.6649",
    "capacity": "15.25",
    "power": "周口市郸城县宁平镇供电所",
    "county": "国网河南省电力公司郸城县供电公司"
  },
  {
    "name": "周口市郸城县东风供电所",
    "account": "4105165462191",
    "lng": "115.2166",
    "lat": "33.6649",
    "capacity": "29.7",
    "power": "周口市郸城县东风供电所",
    "county": "国网河南省电力公司郸城县供电公司"
  },
  {
    "name": "周口市郸城县李楼乡供电所",
    "account": "4105165477735",
    "lng": "115.2166",
    "lat": "33.6649",
    "capacity": "23.1",
    "power": "周口市郸城县李楼乡供电所",
    "county": "国网河南省电力公司郸城县供电公司"
  },
  {
    "name": "周口市西华县艾岗供电所",
    "account": "4105165485828",
    "lng": "114.6026",
    "lat": "33.7229",
    "capacity": "12.1",
    "power": "周口市西华县艾岗供电所",
    "county": "国网河南省电力公司郸城县供电公司"
  },
  {
    "name": "周口市西华县东夏镇供电所",
    "account": "4105165517804",
    "lng": "114.6026",
    "lat": "33.7229",
    "capacity": "14.8",
    "power": "周口市西华县东夏镇供电所",
    "county": "国网河南省电力公司西华县供电公司"
  },
  {
    "name": "周口市西华县奉母供电所",
    "account": "4105165518100",
    "lng": "114.6026",
    "lat": "33.7229",
    "capacity": "18.2",
    "power": "周口市西华县奉母供电所",
    "county": "国网河南省电力公司西华县供电公司"
  },
  {
    "name": "周口市西华县大王庄乡供电所",
    "account": "4105165518272",
    "lng": "114.6026",
    "lat": "33.7229",
    "capacity": "26.4",
    "power": "周口市西华县大王庄乡供电所",
    "county": "国网河南省电力公司西华县供电公司"
  },
  {
    "name": "周口市西华县红花镇供电所",
    "account": "4105165518344",
    "lng": "114.6026",
    "lat": "33.7229",
    "capacity": "34.1",
    "power": "周口市西华县红花镇供电所",
    "county": "国网河南省电力公司西华县供电公司"
  },
  {
    "name": "周口市西华县黄桥镇供电所",
    "account": "4105165518487",
    "lng": "114.6026",
    "lat": "33.7229",
    "capacity": "18.2",
    "power": "周口市西华县黄桥镇供电所",
    "county": "国网河南省电力公司西华县供电公司"
  },
  {
    "name": "周口市西华县聂堆营供电所",
    "account": "4105165519594",
    "lng": "114.6026",
    "lat": "33.7229",
    "capacity": "35.64",
    "power": "周口市西华县聂堆营供电所",
    "county": "国网河南省电力公司西华县供电公司"
  },
  {
    "name": "周口市西华县供电公司",
    "account": "4105165519637",
    "lng": "114.6026",
    "lat": "33.7229",
    "capacity": "52.25",
    "power": "周口市西华县供电公司",
    "county": "国网河南省电力公司西华县供电公司"
  },
  {
    "name": "周口市西华县皮营乡供电所",
    "account": "4105165534810",
    "lng": "114.6026",
    "lat": "33.7229",
    "capacity": "23.1",
    "power": "周口市西华县皮营乡供电所",
    "county": "国网河南省电力公司西华县供电公司"
  },
  {
    "name": "周口市西华县清河驿乡供电所",
    "account": "4105165534908",
    "lng": "114.6026",
    "lat": "33.7229",
    "capacity": "19.8",
    "power": "周口市西华县清河驿乡供电所",
    "county": "国网河南省电力公司西华县供电公司"
  },
  {
    "name": "周口市西华县田口乡供电所",
    "account": "4105165536584",
    "lng": "114.6026",
    "lat": "33.7229",
    "capacity": "15.4",
    "power": "周口市西华县田口乡供电所",
    "county": "国网河南省电力公司西华县供电公司"
  },
  {
    "name": "周口市西华县叶埠口供电所",
    "account": "4105165551275",
    "lng": "114.6026",
    "lat": "33.7229",
    "capacity": "12.1",
    "power": "周口市西华县叶埠口供电所",
    "county": "国网河南省电力公司西华县供电公司"
  },
  {
    "name": "周口市西华县址坊镇供电所",
    "account": "4105165551321",
    "lng": "114.6026",
    "lat": "33.7229",
    "capacity": "18.15",
    "power": "周口市西华县址坊镇供电所",
    "county": "国网河南省电力公司西华县供电公司"
  },
  {
    "name": "周口市西华县迟营乡供电所",
    "account": "4105165551389",
    "lng": "114.6026",
    "lat": "33.7229",
    "capacity": "9.9",
    "power": "周口市西华县迟营乡供电所",
    "county": "国网河南省电力公司西华县供电公司"
  },
  {
    "name": "周口市西华县西华营镇供电所",
    "account": "4105165551435",
    "lng": "114.6026",
    "lat": "33.7229",
    "capacity": "13.75",
    "power": "周口市西华县西华营镇供电所",
    "county": "国网河南省电力公司西华县供电公司"
  },
  {
    "name": "周口市太康县马头乡供电所",
    "account": "4105165609222",
    "lng": "114.866605",
    "lat": "34.022419",
    "capacity": "28.05",
    "power": "周口市太康县马头乡供电所",
    "county": "国网河南省电力公司太康县供电公司"
  },
  {
    "name": "周口市淮阳区新站供电所",
    "account": "4105165628188",
    "lng": "115.031792",
    "lat": "33.800474",
    "capacity": "19.8",
    "power": "周口市淮阳区新站供电所",
    "county": "国网周口供电公司"
  },
  {
    "name": "周口市太康县五里口乡供电所",
    "account": "4105165653072",
    "lng": "114.8666",
    "lat": "34.0224",
    "capacity": "18.7",
    "power": "周口市太康县五里口乡供电所",
    "county": "国网河南省电力公司太康县供电公司"
  },
  {
    "name": "周口市太康县王集供电所",
    "account": "4105165653447",
    "lng": "114.8666",
    "lat": "34.0224",
    "capacity": "23.1",
    "power": "周口市太康县王集供电所",
    "county": "国网河南省电力公司太康县供电公司"
  },
  {
    "name": "周口市太康县电业局",
    "account": "4105165720057",
    "lng": "114.8666",
    "lat": "34.0224",
    "capacity": "64.9",
    "power": "周口市太康县电业局",
    "county": "国网河南省电力公司太康县供电公司"
  },
  {
    "name": "周口市太康县符草楼供电所",
    "account": "4105165720510",
    "lng": "114.8666",
    "lat": "34.0224",
    "capacity": "20.35",
    "power": "周口市太康县符草楼供电所",
    "county": "国网河南省电力公司太康县供电公司"
  },
  {
    "name": "周口市太康县朱口供电所",
    "account": "4105165723173",
    "lng": "114.8666",
    "lat": "34.0224",
    "capacity": "10.45",
    "power": "周口市太康县朱口供电所",
    "county": "国网河南省电力公司太康县供电公司"
  },
  {
    "name": "周口市太康县杨庙供电所",
    "account": "4105165723782",
    "lng": "114.8666",
    "lat": "34.0224",
    "capacity": "19.25",
    "power": "周口市太康县杨庙供电所",
    "county": "国网河南省电力公司太康县供电公司"
  },
  {
    "name": "周口市太康县转楼供电所",
    "account": "4105165723926",
    "lng": "114.8666",
    "lat": "34.0224",
    "capacity": "16.5",
    "power": "周口市太康县转楼供电所",
    "county": "国网河南省电力公司太康县供电公司"
  },
  {
    "name": "周口市太康县独塘乡供电所",
    "account": "4105165724479",
    "lng": "114.8666",
    "lat": "34.0224",
    "capacity": "19.8",
    "power": "周口市太康县独塘乡供电所",
    "county": "国网河南省电力公司太康县供电公司"
  },
  {
    "name": "周口市太康县板桥供电所",
    "account": "4105165750917",
    "lng": "114.8666",
    "lat": "34.0224",
    "capacity": "31.9",
    "power": "周口市太康县板桥供电所",
    "county": "国网河南省电力公司太康县供电公司"
  },
  {
    "name": "周口市沈丘县石糟乡供电所",
    "account": "4105165785436",
    "lng": "115.216075",
    "lat": "33.306522",
    "capacity": "22",
    "power": "周口市沈丘县石糟乡供电所",
    "county": "国网河南省电力公司沈丘县供电公司"
  },
  {
    "name": "周口市郸城县宜路乡供电所",
    "account": "4105165461680",
    "lng": "115.2166",
    "lat": "33.6649",
    "capacity": "13.75",
    "power": "周口市郸城县宜路乡供电所",
    "county": "国网河南省电力公司郸城县供电公司"
  },
  {
    "name": "周口市郸城县电业局",
    "account": "4105165478884",
    "lng": "115.2166",
    "lat": "33.6649",
    "capacity": "113.3",
    "power": "周口市郸城县电业局",
    "county": "国网河南省电力公司郸城县供电公司"
  },
  {
    "name": "周口市郸城县胡集乡供电所",
    "account": "4105165479294",
    "lng": "115.2166",
    "lat": "33.6649",
    "capacity": "9.9",
    "power": "周口市郸城县胡集乡供电所",
    "county": "国网河南省电力公司郸城县供电公司"
  },
  {
    "name": "周口市郸城县钱店供电所",
    "account": "4105165479757",
    "lng": "115.2166",
    "lat": "33.6649",
    "capacity": "36.3",
    "power": "周口市郸城县钱店供电所",
    "county": "国网河南省电力公司郸城县供电公司"
  },
  {
    "name": "周口市郸城县吴台供电所",
    "account": "4105165481350",
    "lng": "115.2166",
    "lat": "33.6649",
    "capacity": "37.4",
    "power": "周口市郸城县吴台供电所",
    "county": "国网河南省电力公司郸城县供电公司"
  },
  {
    "name": "周口市淮阳县朱集乡供电所",
    "account": "4105165575237",
    "lng": "115.031792",
    "lat": "33.800474",
    "capacity": "15.95",
    "power": "周口市淮阳县朱集乡供电所",
    "county": "国网河南省电力公司淮阳县供电公司"
  },
  {
    "name": "周口市太康县老冢镇供电所",
    "account": "4105165704493",
    "lng": "114.8666",
    "lat": "34.0224",
    "capacity": "31.9",
    "power": "周口市太康县老冢镇供电所",
    "county": "国网河南省电力公司太康县供电公司"
  },
  {
    "name": "周口市商水县固墙供电所",
    "account": "4105165618435",
    "lng": "114.625909",
    "lat": "33.569545",
    "capacity": "33",
    "power": "周口市商水县固墙供电所",
    "county": "国网河南省电力公司商水县供电公司"
  },
  {
    "name": "周口市商水县黄寨供电所",
    "account": "4105165618826",
    "lng": "114.625909",
    "lat": "33.569545",
    "capacity": "33",
    "power": "周口市商水县黄寨供电所",
    "county": "国网河南省电力公司商水县供电公司"
  },
  {
    "name": "周口市商水县舒庄所",
    "account": "4105165618901",
    "lng": "114.625909",
    "lat": "33.569545",
    "capacity": "13.2",
    "power": "周口市商水县舒庄所",
    "county": "国网河南省电力公司商水县供电公司"
  },
  {
    "name": "周口市商水县邓城镇供电所",
    "account": "4105165618969",
    "lng": "114.625909",
    "lat": "33.569545",
    "capacity": "11",
    "power": "周口市商水县邓城镇供电所",
    "county": "国网河南省电力公司商水县供电公司"
  },
  {
    "name": "周口市区供电公司综合楼",
    "account": "4105166056755",
    "lng": "114.42897",
    "lat": "33.755563",
    "capacity": "36.85",
    "power": "周口市区供电公司",
    "county": "国网周口供电公司"
  },
  {
    "name": "周口市黄泛区场部供电所",
    "account": "4105165853371",
    "lng": "114.42897",
    "lat": "33.755563",
    "capacity": "19.25",
    "power": "周口市黄泛区场部供电所",
    "county": "国网周口供电公司"
  },
  {
    "name": "周口市黄泛区郭三供电所",
    "account": "4105165950362",
    "lng": "114.42897",
    "lat": "33.755563",
    "capacity": "16.5",
    "power": "周口市黄泛区郭三供电所",
    "county": "国网周口供电公司"
  },
  {
    "name": "周口市黄泛区路北供电所",
    "account": "4105165850763",
    "lng": "114.42897",
    "lat": "33.755563",
    "capacity": "36.3",
    "power": "周口市黄泛区路北供电所",
    "county": "国网周口供电公司"
  },
  {
    "name": "周口市黄泛区八分场",
    "account": "4105165823857",
    "lng": "114.42897",
    "lat": "33.755563",
    "capacity": "24.2",
    "power": "周口市黄泛区供电所",
    "county": "国网周口供电公司"
  },
  {
    "name": "周口市淮阳区刘振屯供电所",
    "account": "4105165284106",
    "lng": "115.031792",
    "lat": "33.800474",
    "capacity": "11.55",
    "power": "周口市淮阳区刘振屯供电所",
    "county": "国网周口供电公司"
  },
  {
    "name": "漯河市舞阳县文峰供电所",
    "account": "4105164411150",
    "lng": "113.668924",
    "lat": "33.526654",
    "capacity": "38.5",
    "power": "漯河市舞阳县文峰供电所",
    "county": "国网河南省电力公司舞阳县供电公司"
  },
  {
    "name": "漯河市舞阳县保和乡供电所",
    "account": "4105164414234",
    "lng": "113.668924",
    "lat": "33.526654",
    "capacity": "18.7",
    "power": "漯河市舞阳县保和乡供电所",
    "county": "国网河南省电力公司舞阳县供电公司"
  },
  {
    "name": "漯河市舞阳县辛安镇供电所",
    "account": "4105164417770",
    "lng": "113.668924",
    "lat": "33.526654",
    "capacity": "23.65",
    "power": "漯河市舞阳县辛安镇供电所",
    "county": "国网河南省电力公司舞阳县供电公司"
  },
  {
    "name": "漯河市舞阳县吴城供电所",
    "account": "4105164422040",
    "lng": "113.668924",
    "lat": "33.526654",
    "capacity": "15.4",
    "power": "漯河市舞阳县吴城供电所",
    "county": "国网河南省电力公司舞阳县供电公司"
  },
  {
    "name": "漯河市舞阳县九街供电所",
    "account": "4105164455954",
    "lng": "113.668924",
    "lat": "33.526654",
    "capacity": "22",
    "power": "漯河市舞阳县九街供电所",
    "county": "国网河南省电力公司舞阳县供电公司"
  },
  {
    "name": "漯河市舞阳县供电公司",
    "account": "4105165949124",
    "lng": "113.668924",
    "lat": "33.526654",
    "capacity": "56.1",
    "power": "漯河市舞阳县供电公司",
    "county": "国网河南省电力公司舞阳县供电公司"
  },
  {
    "name": "漯河市区召陵供电所",
    "account": "4105163700747",
    "lng": "114.217625",
    "lat": "33.691335",
    "capacity": "14.3",
    "power": "漯河市区召陵供电所",
    "county": "国网漯河供电公司"
  },
  {
    "name": "漯河市区阴阳赵供电所",
    "account": "4105163702062",
    "lng": "114.217625",
    "lat": "33.691335",
    "capacity": "12.1",
    "power": "漯河市区阴阳赵供电所",
    "county": "国网漯河供电公司"
  },
  {
    "name": "漯河市区环城供电部",
    "account": "4105163705205",
    "lng": "114.217625",
    "lat": "33.691335",
    "capacity": "41.25",
    "power": "漯河市区环城供电部",
    "county": "国网漯河供电公司"
  },
  {
    "name": "漯河市临颍县固厢供电所",
    "account": "4105164047524",
    "lng": "113.974317",
    "lat": "33.864175",
    "capacity": "22.55",
    "power": "漯河市临颍县固厢供电所",
    "county": "国网河南省电力公司临颍县供电公司"
  },
  {
    "name": "漯河市临颍县王孟供电所",
    "account": "4105164049184",
    "lng": "113.974317",
    "lat": "33.864175",
    "capacity": "11",
    "power": "漯河市临颍县王孟供电所",
    "county": "国网河南省电力公司临颍县供电公司"
  },
  {
    "name": "漯河市临颍县杜曲供电所",
    "account": "4105164050104",
    "lng": "113.974317",
    "lat": "33.864175",
    "capacity": "28.05",
    "power": "漯河市临颍县杜曲供电所",
    "county": "国网河南省电力公司临颍县供电公司"
  },
  {
    "name": "漯河市临颍县供电公司办公大楼",
    "account": "4105164053695",
    "lng": "113.974317",
    "lat": "33.864175",
    "capacity": "20.9",
    "power": "漯河市临颍县供电公司",
    "county": "国网河南省电力公司临颍县供电公司"
  },
  {
    "name": "漯河市临颍县三家店供电所",
    "account": "4105164032935",
    "lng": "113.974317",
    "lat": "33.864175",
    "capacity": "15.4",
    "power": "漯河市临颍县三家店供电所",
    "county": "国网河南省电力公司临颍县供电公司"
  },
  {
    "name": "新乡市新乡县107国道加氢站光伏项目",
    "account": "未并网",
    "lng": "113.685",
    "lat": "34.99",
    "capacity": "23.1",
    "power": "国网新乡供电公司",
    "county": "国网新乡供电公司"
  },
  {
    "name": "驻马店市确山县留庄供电所",
    "account": "4105164686262",
    "lng": "114.033",
    "lat": "32.812",
    "capacity": "11",
    "power": "驻马店市确山县留庄供电所",
    "county": "国网河南省电力公司确山县供电公司"
  },
  {
    "name": "驻马店市确山县任店乡供电所",
    "account": "4105164715829",
    "lng": "114.033",
    "lat": "32.812",
    "capacity": "20.9",
    "power": "驻马店市确山县任店乡供电所",
    "county": "国网河南省电力公司确山县供电公司"
  },
  {
    "name": "驻马店市确山县杨店乡供电所",
    "account": "4105164716893",
    "lng": "114.033",
    "lat": "32.812",
    "capacity": "14.85",
    "power": "驻马店市确山县杨店乡供电所",
    "county": "国网河南省电力公司确山县供电公司"
  },
  {
    "name": "驻马店市确山县双河乡供电所",
    "account": "4105164727233",
    "lng": "114.033",
    "lat": "32.812",
    "capacity": "16.5",
    "power": "驻马店市确山县双河乡供电所",
    "county": "国网河南省电力公司确山县供电公司"
  },
  {
    "name": "驻马店市确山县新安店乡供电所",
    "account": "4105164727666",
    "lng": "114.033",
    "lat": "32.812",
    "capacity": "15.4",
    "power": "驻马店市确山县新安店乡供电所",
    "county": "国网河南省电力公司确山县供电公司"
  },
  {
    "name": "驻马店市确山县竹沟乡",
    "account": "4105164727884",
    "lng": "114.033",
    "lat": "32.812",
    "capacity": "22",
    "power": "驻马店市确山县竹沟乡",
    "county": "国网河南省电力公司确山县供电公司"
  },
  {
    "name": "驻马店市西平县电业局",
    "account": "4105164034045",
    "lng": "114.038357",
    "lat": "33.503824",
    "capacity": "39.6",
    "power": "驻马店市西平县电业局",
    "county": "国网河南省电力公司西平县供电公司"
  },
  {
    "name": "驻马店市遂平中心供电所",
    "account": "4105164110897",
    "lng": "114.014995",
    "lat": "33.145231",
    "capacity": "96.8",
    "power": "驻马店市遂平中心供电所",
    "county": "国网河南省电力公司遂平县供电公司"
  },
  {
    "name": "驻马店市遂平县张台供电所",
    "account": "4105164562337",
    "lng": "114.014995",
    "lat": "33.145231",
    "capacity": "22",
    "power": "驻马店市遂平县张台供电所",
    "county": "国网河南省电力公司遂平县供电公司"
  },
  {
    "name": "驻马店市西平县杨庄供电所",
    "account": "4105164871536",
    "lng": "114.038357",
    "lat": "33.503824",
    "capacity": "12.1",
    "power": "驻马店市西平县杨庄供电所",
    "county": "国网河南省电力公司西平县供电公司"
  },
  {
    "name": "驻马店市遂平县常庄供电所",
    "account": "4105165709166",
    "lng": "114.014995",
    "lat": "33.145231",
    "capacity": "20.35",
    "power": "驻马店市遂平县常庄供电所",
    "county": "国网河南省电力公司遂平县供电公司"
  },
  {
    "name": "驻马店市新蔡县佛阁寺供电所",
    "account": "4105165832060",
    "lng": "115.151948",
    "lat": "32.754363",
    "capacity": "15.95",
    "power": "驻马店市新蔡县佛阁寺供电所",
    "county": "国网河南省电力公司新蔡县供电公司"
  },
  {
    "name": "驻马店市新蔡县顿岗乡供电所",
    "account": "4105165833311",
    "lng": "115.151948",
    "lat": "32.754363",
    "capacity": "11.51",
    "power": "驻马店市新蔡县顿岗乡供电所",
    "county": "国网河南省电力公司新蔡县供电公司"
  },
  {
    "name": "驻马店市上蔡县蔡沟乡供电所",
    "account": "4105165503524",
    "lng": "114.4577",
    "lat": "33.2836",
    "capacity": "36.3",
    "power": "驻马店市上蔡县蔡沟乡供电所",
    "county": "国网河南省电力公司上蔡县供电公司"
  },
  {
    "name": "驻马店市上蔡县大路李供电所",
    "account": "4105165506233",
    "lng": "114.4577",
    "lat": "33.2836",
    "capacity": "18.15",
    "power": "驻马店市上蔡县大路李供电所",
    "county": "国网河南省电力公司上蔡县供电公司"
  },
  {
    "name": "驻马店市上蔡县东洪供电所",
    "account": "4105165507760",
    "lng": "114.4577",
    "lat": "33.2836",
    "capacity": "24.2",
    "power": "驻马店市上蔡县东洪供电所",
    "county": "国网河南省电力公司上蔡县供电公司"
  },
  {
    "name": "驻马店市上蔡县西大街供电营业厅",
    "account": "4105165508330",
    "lng": "114.4577",
    "lat": "33.2836",
    "capacity": "22",
    "power": "驻马店市上蔡县西大街供电营业厅",
    "county": "国网河南省电力公司上蔡县供电公司"
  },
  {
    "name": "驻马店市上蔡县齐海供电所",
    "account": "4105165510786",
    "lng": "114.4577",
    "lat": "33.2836",
    "capacity": "11",
    "power": "驻马店市上蔡县齐海供电所",
    "county": "国网河南省电力公司上蔡县供电公司"
  },
  {
    "name": "驻马店市上蔡县洙湖乡供电所",
    "account": "4105165511284",
    "lng": "114.4577",
    "lat": "33.2836",
    "capacity": "22",
    "power": "驻马店市上蔡县洙湖乡供电所",
    "county": "国网河南省电力公司上蔡县供电公司"
  },
  {
    "name": "驻马店市上蔡县五龙乡供电所",
    "account": "4105165511604",
    "lng": "114.4577",
    "lat": "33.2836",
    "capacity": "11",
    "power": "驻马店市上蔡县五龙乡供电所",
    "county": "国网河南省电力公司上蔡县供电公司"
  },
  {
    "name": "驻马店市上蔡县黄埠乡供电所",
    "account": "4105165511806",
    "lng": "114.4577",
    "lat": "33.2836",
    "capacity": "23.1",
    "power": "驻马店市上蔡县黄埠乡供电所",
    "county": "国网河南省电力公司上蔡县供电公司"
  },
  {
    "name": "驻马店市区胡庙供电所",
    "account": "4105165610910",
    "lng": "114.02",
    "lat": "32.976",
    "capacity": "29.7",
    "power": "驻马店市区胡庙供电所",
    "county": "国网驻马店供电公司"
  },
  {
    "name": "驻马店供电公司",
    "account": "4105165612105",
    "lng": "114.02",
    "lat": "32.976",
    "capacity": "46.2",
    "power": "驻马店供电公司",
    "county": "国网驻马店供电公司"
  },
  {
    "name": "驻马店市区蚁蜂供电所",
    "account": "4105165615638",
    "lng": "114.02",
    "lat": "32.976",
    "capacity": "22.55",
    "power": "驻马店市区蚁蜂供电所",
    "county": "国网驻马店供电公司"
  },
  {
    "name": "驻马店市区刘阁供电所",
    "account": "4105165616758",
    "lng": "114.02",
    "lat": "32.976",
    "capacity": "42.9",
    "power": "驻马店市区刘阁供电所",
    "county": "国网驻马店供电公司"
  },
  {
    "name": "驻马店市区香山供电所",
    "account": "4105165653056",
    "lng": "114.02",
    "lat": "32.976",
    "capacity": "13.2",
    "power": "驻马店市区香山供电所",
    "county": "国网驻马店供电公司"
  },
  {
    "name": "驻马店市泌阳县局营业厅",
    "account": "4105165834444",
    "lng": "113.46",
    "lat": "33.04",
    "capacity": "9.9",
    "power": "驻马店市泌阳县局营业厅",
    "county": "国网河南省电力公司泌阳县供电公司"
  },
  {
    "name": "驻马店市泌阳县老河乡供电所",
    "account": "4105165887116",
    "lng": "113.46",
    "lat": "33.04",
    "capacity": "9.9",
    "power": "驻马店市泌阳县老河乡供电所",
    "county": "国网河南省电力公司泌阳县供电公司"
  },
  {
    "name": "驻马店市正阳县吕河乡供电所",
    "account": "4105165954872",
    "lng": "114.562573",
    "lat": "32.481128",
    "capacity": "24.2",
    "power": "驻马店市正阳县吕河乡供电所",
    "county": "国网河南省电力公司正阳县供电公司"
  },
  {
    "name": "驻马店市正阳县梁庙供电所",
    "account": "4105165955019",
    "lng": "114.562573",
    "lat": "32.481128",
    "capacity": "26.4",
    "power": "驻马店市正阳县梁庙供电所",
    "county": "国网河南省电力公司正阳县供电公司"
  },
  {
    "name": "驻马店市正阳县熊寨乡供电所",
    "account": "4105165955165",
    "lng": "114.562573",
    "lat": "32.481128",
    "capacity": "23.1",
    "power": "驻马店市正阳县熊寨乡供电所",
    "county": "国网河南省电力公司正阳县供电公司"
  },
  {
    "name": "驻马店市正阳县油坊店供电所",
    "account": "4105165955240",
    "lng": "114.562573",
    "lat": "32.481128",
    "capacity": "49.5",
    "power": "驻马店市正阳县油坊店供电所",
    "county": "国网河南省电力公司正阳县供电公司"
  },
  {
    "name": "驻马店市正阳县西严店供电所",
    "account": "4105165955396",
    "lng": "114.562573",
    "lat": "32.481128",
    "capacity": "24.2",
    "power": "驻马店市正阳县西严店供电所",
    "county": "国网河南省电力公司正阳县供电公司"
  },
  {
    "name": "驻马店市正阳县雷寨镇供电所",
    "account": "4105165955442",
    "lng": "114.562573",
    "lat": "32.481128",
    "capacity": "25.3",
    "power": "驻马店市正阳县雷寨镇供电所",
    "county": "国网河南省电力公司正阳县供电公司"
  },
  {
    "name": "驻马店市正阳县汝南埠供电所",
    "account": "4105165955572",
    "lng": "114.562573",
    "lat": "32.481128",
    "capacity": "11.55",
    "power": "驻马店市正阳县汝南埠供电所",
    "county": "国网河南省电力公司正阳县供电公司"
  },
  {
    "name": "驻马店市正阳县慎水街道营业厅",
    "account": "4105165955631",
    "lng": "114.562573",
    "lat": "32.481128",
    "capacity": "26.4",
    "power": "驻马店市正阳县慎水街道营业厅",
    "county": "国网河南省电力公司正阳县供电公司"
  },
  {
    "name": "驻马店市正阳县付寨乡供电所",
    "account": "4105165955699",
    "lng": "114.562573",
    "lat": "32.481128",
    "capacity": "11",
    "power": "驻马店市正阳县付寨乡供电所",
    "county": "国网河南省电力公司正阳县供电公司"
  },
  {
    "name": "驻马店市正阳县铜钟乡供电所",
    "account": "4105165955790",
    "lng": "114.562573",
    "lat": "32.481128",
    "capacity": "22",
    "power": "驻马店市正阳县铜钟乡供电所",
    "county": "国网河南省电力公司正阳县供电公司"
  },
  {
    "name": "驻马店市正阳县城区南环路营业厅",
    "account": "4105165956201",
    "lng": "114.562573",
    "lat": "32.481128",
    "capacity": "47.3",
    "power": "驻马店市正阳县城区南环路营业厅",
    "county": "国网河南省电力公司正阳县供电公司"
  },
  {
    "name": "驻马店市平舆县李屯乡供电所",
    "account": "4105166094711",
    "lng": "114.695005",
    "lat": "33.07933",
    "capacity": "35.2",
    "power": "驻马店市平舆县李屯乡供电所",
    "county": "国网河南省电力公司平舆县供电公司"
  },
  {
    "name": "驻马店市平舆县玉皇庙供电所",
    "account": "4105166094724",
    "lng": "114.695005",
    "lat": "33.07933",
    "capacity": "22",
    "power": "驻马店市平舆县玉皇庙供电所",
    "county": "国网河南省电力公司平舆县供电公司"
  },
  {
    "name": "驻马店市平舆县万金店供电所",
    "account": "4105166094753",
    "lng": "114.695005",
    "lat": "33.07933",
    "capacity": "15.95",
    "power": "驻马店市平舆县万金店供电所",
    "county": "国网河南省电力公司平舆县供电公司"
  },
  {
    "name": "驻马店市平舆县杨埠供电所",
    "account": "4105166094825",
    "lng": "114.695005",
    "lat": "33.07933",
    "capacity": "31.35",
    "power": "驻马店市平舆县杨埠供电所",
    "county": "国网河南省电力公司平舆县供电公司"
  },
  {
    "name": "驻马店市正阳县寒冻中心供电所",
    "account": "4105165954641",
    "lng": "114.562573",
    "lat": "32.481128",
    "capacity": "11.55",
    "power": "驻马店市正阳县寒冻中心供电所",
    "county": "国网河南省电力公司正阳县供电公司"
  },
  {
    "name": "驻马店市上蔡县塔桥中心供电所",
    "account": "4105165509649",
    "lng": "114.4577",
    "lat": "33.2836",
    "capacity": "94.05",
    "power": "驻马店市上蔡县塔桥中心供电所",
    "county": "国网河南省电力公司上蔡县供电公司"
  },
  {
    "name": "南阳市社旗县下洼镇供电所",
    "account": "4105163244719",
    "lng": "112.821646",
    "lat": "33.053208",
    "capacity": "11",
    "power": "南阳市社旗县下洼镇供电所",
    "county": "国网河南省电力公司社旗县供电公司"
  },
  {
    "name": "南阳市社旗县唐庄供电所",
    "account": "4105163326947",
    "lng": "112.821646",
    "lat": "33.053208",
    "capacity": "18.15",
    "power": "南阳市社旗县唐庄供电所",
    "county": "国网河南省电力公司社旗县供电公司"
  },
  {
    "name": "南阳市社旗县李店供电所",
    "account": "4105163331594",
    "lng": "112.821646",
    "lat": "33.053208",
    "capacity": "22",
    "power": "南阳市社旗县李店供电所",
    "county": "国网河南省电力公司社旗县供电公司"
  },
  {
    "name": "南阳市社旗县桥头供电所2",
    "account": "4105163331611",
    "lng": "112.821646",
    "lat": "33.053208",
    "capacity": "18.15",
    "power": "南阳市社旗县桥头供电所2",
    "county": "国网河南省电力公司社旗县供电公司"
  },
  {
    "name": "南阳市社旗县城郊供电所",
    "account": "4105163333170",
    "lng": "112.821646",
    "lat": "33.053208",
    "capacity": "22",
    "power": "南阳市社旗县城郊供电所",
    "county": "国网河南省电力公司社旗县供电公司"
  },
  {
    "name": "南阳市社旗县郝寨供电所",
    "account": "4105163333183",
    "lng": "112.821646",
    "lat": "33.053208",
    "capacity": "23.1",
    "power": "南阳市社旗县郝寨供电所",
    "county": "国网河南省电力公司社旗县供电公司"
  },
  {
    "name": "南阳市邓州市平汲滩供电所",
    "account": "4105163926091",
    "lng": "112.198384",
    "lat": "32.685599",
    "capacity": "16.5",
    "power": "南阳市邓州市平汲滩供电所",
    "county": "国网河南省电力公司邓州市供电公司"
  },
  {
    "name": "南阳市邓州市彭桥供电所",
    "account": "4105163926785",
    "lng": "112.198384",
    "lat": "32.685599",
    "capacity": "18.15",
    "power": "南阳市邓州市彭桥供电所",
    "county": "国网河南省电力公司邓州市供电公司"
  },
  {
    "name": "南阳市邓州市湍北供电所",
    "account": "4105163926857",
    "lng": "112.198384",
    "lat": "32.685599",
    "capacity": "12.1",
    "power": "南阳市邓州市湍北供电所",
    "county": "国网河南省电力公司邓州市供电公司"
  },
  {
    "name": "南阳市邓州市夏集镇供电所",
    "account": "4105163941737",
    "lng": "112.198384",
    "lat": "32.685599",
    "capacity": "31.35",
    "power": "南阳市邓州市夏集镇供电所",
    "county": "国网河南省电力公司邓州市供电公司"
  },
  {
    "name": "南阳市邓州市小杨营供电所",
    "account": "4105163944000",
    "lng": "112.198384",
    "lat": "32.685599",
    "capacity": "12.1",
    "power": "南阳市邓州市小杨营供电所",
    "county": "国网河南省电力公司邓州市供电公司"
  },
  {
    "name": "南阳市邓州市都司供电所",
    "account": "4105163945191",
    "lng": "112.198384",
    "lat": "32.685599",
    "capacity": "17.6",
    "power": "南阳市邓州市都司供电所",
    "county": "国网河南省电力公司邓州市供电公司"
  },
  {
    "name": "南阳市邓州市张村供电所",
    "account": "4105163959149",
    "lng": "112.198384",
    "lat": "32.685599",
    "capacity": "19.8",
    "power": "南阳市邓州市张村供电所",
    "county": "国网河南省电力公司邓州市供电公司"
  },
  {
    "name": "南阳路邓州市白牛供电所",
    "account": "4105163959657",
    "lng": "112.198384",
    "lat": "32.685599",
    "capacity": "28.6",
    "power": "南阳路邓州市白牛供电所",
    "county": "国网河南省电力公司邓州市供电公司"
  },
  {
    "name": "南阳市邓州市穰东供电所",
    "account": "4105163962266",
    "lng": "112.198384",
    "lat": "32.685599",
    "capacity": "22",
    "power": "南阳市邓州市穰东供电所",
    "county": "国网河南省电力公司邓州市供电公司"
  },
  {
    "name": "南阳市邓州市元庄供电所",
    "account": "4105163963331",
    "lng": "112.198384",
    "lat": "32.685599",
    "capacity": "19.8",
    "power": "南阳市邓州市元庄供电所",
    "county": "国网河南省电力公司邓州市供电公司"
  },
  {
    "name": "南阳市邓州市九龙供电所",
    "account": "4105163964190",
    "lng": "112.198384",
    "lat": "32.685599",
    "capacity": "13.2",
    "power": "南阳市邓州市九龙供电所",
    "county": "国网河南省电力公司邓州市供电公司"
  },
  {
    "name": "南阳市邓州市文渠供电所",
    "account": "4105163966011",
    "lng": "112.198384",
    "lat": "32.685599",
    "capacity": "22",
    "power": "南阳市邓州市文渠供电所",
    "county": "国网河南省电力公司邓州市供电公司"
  },
  {
    "name": "南阳市新野县前高庙供电所",
    "account": "4105164437613",
    "lng": "112.318585",
    "lat": "32.418985",
    "capacity": "24.2",
    "power": "南阳市新野县前高庙供电所",
    "county": "国网河南省电力公司新野县供电公司"
  },
  {
    "name": "南阳市南召县供电公司办公楼",
    "account": "4105164475624",
    "lng": "112.770172",
    "lat": "33.481392",
    "capacity": "89.65",
    "power": "南阳市南召县供电公司",
    "county": "国网河南省电力公司南召县供电公司"
  },
  {
    "name": "南阳市南召县南河店供电所",
    "account": "4105164479336",
    "lng": "112.770172",
    "lat": "33.481392",
    "capacity": "27.5",
    "power": "南阳市南召县南河店供电所",
    "county": "国网河南省电力公司南召县供电公司"
  },
  {
    "name": "南阳市镇平县侯集供电所",
    "account": "4105164535434",
    "lng": "112.232545",
    "lat": "33.036136",
    "capacity": "15.4",
    "power": "南阳市镇平县侯集供电所",
    "county": "国网河南省电力公司镇平县供电公司"
  },
  {
    "name": "南阳市新野县王集供电所",
    "account": "4105164548261",
    "lng": "112.318585",
    "lat": "32.418985",
    "capacity": "16.5",
    "power": "南阳市新野县王集供电所",
    "county": "国网河南省电力公司新野县供电公司"
  },
  {
    "name": "南阳市西峡阳城供电所",
    "account": "4105164646851",
    "lng": "111.489712",
    "lat": "33.309837",
    "capacity": "12.1",
    "power": "南阳市西峡阳城供电所",
    "county": "国网河南省电力公司西峡县供电公司"
  },
  {
    "name": "南阳市西峡桑坪供电所",
    "account": "4105164685197",
    "lng": "111.489712",
    "lat": "33.309837",
    "capacity": "18.15",
    "power": "南阳市西峡桑坪供电所",
    "county": "国网河南省电力公司西峡县供电公司"
  },
  {
    "name": "南阳市西峡米坪供电所",
    "account": "4105164686389",
    "lng": "111.489712",
    "lat": "33.309837",
    "capacity": "18.7",
    "power": "南阳市西峡米坪供电所",
    "county": "国网河南省电力公司西峡县供电公司"
  },
  {
    "name": "南阳市西峡二郎坪供电所",
    "account": "4105164687210",
    "lng": "111.489712",
    "lat": "33.309837",
    "capacity": "10.45",
    "power": "南阳市西峡二郎坪供电所",
    "county": "国网河南省电力公司西峡县供电公司"
  },
  {
    "name": "南阳市内乡县大桥乡供电所",
    "account": "4105165042461",
    "lng": "111.83875",
    "lat": "33.044956",
    "capacity": "16.5",
    "power": "南阳市内乡县大桥乡供电所",
    "county": "国网河南省电力公司内乡县供电公司"
  },
  {
    "name": "南阳市内乡县师岗供电所",
    "account": "4105165043347",
    "lng": "111.83875",
    "lat": "33.044956",
    "capacity": "14.85",
    "power": "南阳市内乡县师岗供电所",
    "county": "国网河南省电力公司内乡县供电公司"
  },
  {
    "name": "南阳市内乡县余关乡供电所",
    "account": "4105165044034",
    "lng": "111.83875",
    "lat": "33.044956",
    "capacity": "25.85",
    "power": "南阳市内乡县余关乡供电所",
    "county": "国网河南省电力公司内乡县供电公司"
  },
  {
    "name": "南阳市内乡县马山供电所",
    "account": "4105165046548",
    "lng": "111.83875",
    "lat": "33.044956",
    "capacity": "11.55",
    "power": "南阳市内乡县马山供电所",
    "county": "国网河南省电力公司内乡县供电公司"
  },
  {
    "name": "南阳市内乡县瓦亭镇供电所",
    "account": "4105165046926",
    "lng": "111.83875",
    "lat": "33.044956",
    "capacity": "9.9",
    "power": "南阳市内乡县瓦亭镇供电所",
    "county": "国网河南省电力公司内乡县供电公司"
  },
  {
    "name": "南阳市内乡县七里坪供电所",
    "account": "4105165047570",
    "lng": "111.83875",
    "lat": "33.044956",
    "capacity": "14.3",
    "power": "南阳市内乡县七里坪供电所",
    "county": "国网河南省电力公司内乡县供电公司"
  },
  {
    "name": "南阳市内乡县板场供电所",
    "account": "4105165048762",
    "lng": "111.83875",
    "lat": "33.044956",
    "capacity": "15.4",
    "power": "南阳市内乡县板场供电所",
    "county": "国网河南省电力公司内乡县供电公司"
  },
  {
    "name": "南阳市方城县劵桥乡供电所",
    "account": "4105163467501",
    "lng": "113.33123",
    "lat": "33.158582",
    "capacity": "27.5",
    "power": "南阳市方城县劵桥乡供电所",
    "county": "国网河南省电力公司方城县供电公司"
  },
  {
    "name": "南阳市方城县清河供电所",
    "account": "4105163480212",
    "lng": "113.33123",
    "lat": "33.158582",
    "capacity": "29.7",
    "power": "南阳市方城县清河供电所",
    "county": "国网河南省电力公司方城县供电公司"
  },
  {
    "name": "南阳市方城县杨集镇供电所",
    "account": "4105163538517",
    "lng": "113.33123",
    "lat": "33.158582",
    "capacity": "13.75",
    "power": "南阳市方城县杨集镇供电所",
    "county": "国网河南省电力公司方城县供电公司"
  },
  {
    "name": "南阳市卧龙区潦河供电所",
    "account": "4105163716427",
    "lng": "112.54",
    "lat": "33.0138",
    "capacity": "18.7",
    "power": "南阳市卧龙区潦河供电所",
    "county": "国网南阳供电公司"
  },
  {
    "name": "南阳市宛城区新店供电所",
    "account": "4105163737868",
    "lng": "112.54",
    "lat": "33.0138",
    "capacity": "23.1",
    "power": "南阳市宛城区新店供电所",
    "county": "国网南阳供电公司"
  },
  {
    "name": "南阳市区黄台岗供电所",
    "account": "4105163738816",
    "lng": "112.54",
    "lat": "33.0138",
    "capacity": "28.05",
    "power": "南阳市区黄台岗供电所",
    "county": "国网南阳供电公司"
  },
  {
    "name": "南阳市区汉冢供电所",
    "account": "4105163740392",
    "lng": "112.54",
    "lat": "33.0138",
    "capacity": "11",
    "power": "南阳市区汉冢供电所",
    "county": "国网南阳供电公司"
  },
  {
    "name": "南阳市区龙兴供电所",
    "account": "4105163740800",
    "lng": "112.54",
    "lat": "33.0138",
    "capacity": "21.45",
    "power": "南阳市区龙兴供电所",
    "county": "国网南阳供电公司"
  },
  {
    "name": "南阳市方城县古庄店供电所",
    "account": "4105163802238",
    "lng": "113.33123",
    "lat": "33.158582",
    "capacity": "22",
    "power": "南阳市方城县古庄店供电所",
    "county": "国网河南省电力公司方城县供电公司"
  },
  {
    "name": "南阳市方城县独树镇供电所",
    "account": "4105163814147",
    "lng": "113.33123",
    "lat": "33.158582",
    "capacity": "23.1",
    "power": "南阳市方城县独树镇供电所",
    "county": "国网河南省电力公司方城县供电公司"
  },
  {
    "name": "南阳市方城县二郎庙供电所",
    "account": "4105163822113",
    "lng": "113.33123",
    "lat": "33.158582",
    "capacity": "39.6",
    "power": "南阳市方城县二郎庙供电所",
    "county": "国网河南省电力公司方城县供电公司"
  },
  {
    "name": "南阳市方城县拐河镇供电所",
    "account": "4105163846915",
    "lng": "113.33123",
    "lat": "33.158582",
    "capacity": "35.2",
    "power": "南阳市方城县拐河镇供电所",
    "county": "国网河南省电力公司方城县供电公司"
  },
  {
    "name": "南阳市区石桥供电所",
    "account": "4105163864650",
    "lng": "112.54",
    "lat": "33.0138",
    "capacity": "16.5",
    "power": "南阳市区石桥供电所",
    "county": "国网南阳供电公司"
  },
  {
    "name": "南阳市卧龙区陆营供电所",
    "account": "4105163869743",
    "lng": "112.54",
    "lat": "33.0138",
    "capacity": "30.25",
    "power": "南阳市卧龙区陆营供电所",
    "county": "国网南阳供电公司"
  },
  {
    "name": "南阳市区蒲山供电所",
    "account": "4105163919174",
    "lng": "112.54",
    "lat": "33.0138",
    "capacity": "19.8",
    "power": "南阳市区蒲山供电所",
    "county": "国网南阳供电公司"
  },
  {
    "name": "南阳市南召县城郊供电所",
    "account": "4105164167705",
    "lng": "112.770172",
    "lat": "33.481392",
    "capacity": "20.9",
    "power": "南阳市南召县城郊供电所",
    "county": "国网河南省电力公司南召县供电公司"
  },
  {
    "name": "南阳市南召县皇路店供电所",
    "account": "4105164206493",
    "lng": "112.770172",
    "lat": "33.481392",
    "capacity": "16.5",
    "power": "南阳市南召县皇路店供电所",
    "county": "国网河南省电力公司南召县供电公司"
  },
  {
    "name": "南阳市南召县四棵树供电所",
    "account": "4105164206510",
    "lng": "112.770172",
    "lat": "33.481392",
    "capacity": "13.2",
    "power": "南阳市南召县四棵树供电所",
    "county": "国网河南省电力公司南召县供电公司"
  },
  {
    "name": "南阳市新野县施庵供电所",
    "account": "4105164214238",
    "lng": "112.318585",
    "lat": "32.418985",
    "capacity": "18.7",
    "power": "南阳市新野县施庵供电所",
    "county": "国网河南省电力公司新野县供电公司"
  },
  {
    "name": "南阳市南召县小店乡供电所",
    "account": "4105164220194",
    "lng": "112.770172",
    "lat": "33.481392",
    "capacity": "33.55",
    "power": "南阳市南召县小店乡供电所",
    "county": "国网河南省电力公司南召县供电公司"
  },
  {
    "name": "南阳市南召县白土岗供电所",
    "account": "4105164222998",
    "lng": "112.770172",
    "lat": "33.481392",
    "capacity": "22",
    "power": "南阳市南召县白土岗供电所",
    "county": "国网河南省电力公司南召县供电公司"
  },
  {
    "name": "南阳市新野县王庄供电所",
    "account": "4105164400316",
    "lng": "112.318585",
    "lat": "32.418985",
    "capacity": "15.95",
    "power": "南阳市新野县王庄供电所",
    "county": "国网河南省电力公司新野县供电公司"
  },
  {
    "name": "南阳市新野县城郊供电所",
    "account": "4105164404783",
    "lng": "112.318585",
    "lat": "32.418985",
    "capacity": "15.95",
    "power": "南阳市新野县城郊供电所",
    "county": "国网河南省电力公司新野县供电公司"
  },
  {
    "name": "南阳市镇平县枣园供电所",
    "account": "4105164557490",
    "lng": "112.232545",
    "lat": "33.036136",
    "capacity": "19.25",
    "power": "南阳市镇平县枣园供电所",
    "county": "国网河南省电力公司镇平县供电公司"
  },
  {
    "name": "南阳市镇平县高丘供电所",
    "account": "4105164656126",
    "lng": "112.232545",
    "lat": "33.036136",
    "capacity": "12.1",
    "power": "南阳市镇平县高丘供电所",
    "county": "国网河南省电力公司镇平县供电公司"
  },
  {
    "name": "南阳市西峡军马河供电所",
    "account": "4105164686770",
    "lng": "111.489712",
    "lat": "33.309837",
    "capacity": "20.9",
    "power": "南阳市西峡军马河供电所",
    "county": "国网河南省电力公司西峡县供电公司"
  },
  {
    "name": "南阳市镇平县王岗供电所",
    "account": "4105164769855",
    "lng": "112.232545",
    "lat": "33.036136",
    "capacity": "9.9",
    "power": "南阳市镇平县王岗供电所",
    "county": "国网河南省电力公司镇平县供电公司"
  },
  {
    "name": "南阳市镇平县晁陂供电所",
    "account": "4105165142695",
    "lng": "112.232545",
    "lat": "33.036136",
    "capacity": "12.1",
    "power": "南阳市镇平县晁陂供电所",
    "county": "国网河南省电力公司镇平县供电公司"
  },
  {
    "name": "南阳市新野县五星供电所",
    "account": "4105165323793",
    "lng": "112.318585",
    "lat": "32.418985",
    "capacity": "20.35",
    "power": "南阳市新野县五星供电所",
    "county": "国网河南省电力公司新野县供电公司"
  },
  {
    "name": "南阳市镇平县老庄供电所",
    "account": "4105165412910",
    "lng": "112.232545",
    "lat": "33.036136",
    "capacity": "16.5",
    "power": "南阳市镇平县老庄供电所",
    "county": "国网河南省电力公司镇平县供电公司"
  },
  {
    "name": "南阳市镇平县雪枫供电所",
    "account": "4105165462234",
    "lng": "112.232545",
    "lat": "33.036136",
    "capacity": "16.5",
    "power": "南阳市镇平县雪枫供电所",
    "county": "国网河南省电力公司镇平县供电公司"
  },
  {
    "name": "南阳市方城县柳河乡供电所",
    "account": "4105163467699",
    "lng": "113.33123",
    "lat": "33.158582",
    "capacity": "19.8",
    "power": "南阳市方城县柳河乡供电所",
    "county": "国网河南省电力公司方城县供电公司"
  },
  {
    "name": "南阳市唐河县城区供电中心",
    "account": "4105164552323",
    "lng": "112.846274",
    "lat": "32.687572",
    "capacity": "84.15",
    "power": "南阳市唐河县城区供电中心",
    "county": "国网河南省电力公司唐河县供电公司"
  },
  {
    "name": "信阳市浉河区游河乡供电所",
    "account": "4105165019531",
    "lng": "114.106307",
    "lat": "32.032124",
    "capacity": "20.9",
    "power": "信阳市浉河区游河乡供电所",
    "county": "国网信阳供电公司"
  },
  {
    "name": "信阳市浉河区吴家店供电所",
    "account": "4105165031698",
    "lng": "114.106307",
    "lat": "32.032124",
    "capacity": "17.6",
    "power": "信阳市浉河区吴家店供电所",
    "county": "国网信阳供电公司"
  },
  {
    "name": "信阳市区平桥区肖店供电所",
    "account": "4105165196445",
    "lng": "114.204986",
    "lat": "32.253",
    "capacity": "31.9",
    "power": "信阳市区平桥区肖店供电所",
    "county": "国网信阳供电公司"
  },
  {
    "name": "信阳市光山县孙铁铺供电所",
    "account": "4105165490390",
    "lng": "114.939248",
    "lat": "32.047401",
    "capacity": "35.75",
    "power": "信阳市光山县孙铁铺供电所",
    "county": "国网河南省电力公司光山县供电公司"
  },
  {
    "name": "信阳市光山县北向店供电所",
    "account": "4105165495454",
    "lng": "114.939248",
    "lat": "32.047401",
    "capacity": "31.35",
    "power": "信阳市光山县北向店供电所",
    "county": "国网河南省电力公司光山县供电公司"
  },
  {
    "name": "信阳市光山县斛山供电所",
    "account": "4105165499443",
    "lng": "114.939248",
    "lat": "32.047401",
    "capacity": "24.2",
    "power": "信阳市光山县斛山供电所",
    "county": "国网河南省电力公司光山县供电公司"
  },
  {
    "name": "信阳市浉河区十三里桥供电所",
    "account": "4105165645123",
    "lng": "114.106307",
    "lat": "32.032124",
    "capacity": "26.4",
    "power": "信阳市浉河区十三里桥供电所",
    "county": "国网信阳供电公司"
  },
  {
    "name": "信阳市区平桥区长台供电所",
    "account": "4105165051528",
    "lng": "114.204986",
    "lat": "32.253",
    "capacity": "27",
    "power": "信阳市区平桥区长台供电所",
    "county": "国网信阳供电公司"
  },
  {
    "name": "信阳市平桥区高梁店供电所",
    "account": "4105165058910",
    "lng": "114.204986",
    "lat": "32.253",
    "capacity": "27",
    "power": "信阳市平桥区高梁店供电所",
    "county": "国网信阳供电公司"
  },
  {
    "name": "信阳市区平桥区邢集供电所",
    "account": "4105165198409",
    "lng": "114.204986",
    "lat": "32.253",
    "capacity": "24.75",
    "power": "信阳市区平桥区邢集供电所",
    "county": "国网信阳供电公司"
  },
  {
    "name": "信阳市区平桥区甘岸供电所",
    "account": "4105165771853",
    "lng": "114.204986",
    "lat": "32.253",
    "capacity": "27",
    "power": "信阳市区平桥区甘岸供电所",
    "county": "国网信阳供电公司"
  },
  {
    "name": "信阳市区平桥区王岗供电所",
    "account": "4105165787490",
    "lng": "114.204986",
    "lat": "32.253",
    "capacity": "27",
    "power": "信阳市区平桥区王岗供电所",
    "county": "国网信阳供电公司"
  },
  {
    "name": "信阳市平桥区明港供电所营业厅",
    "account": "4105165792308",
    "lng": "114.204986",
    "lat": "32.253",
    "capacity": "27",
    "power": "信阳市平桥区明港供电所营业厅",
    "county": "国网信阳供电公司"
  },
  {
    "name": "信阳市平桥区明港供电所营业厅",
    "account": "4105165807222",
    "lng": "114.204986",
    "lat": "32.253",
    "capacity": "27",
    "power": "信阳市平桥区明港供电所营业厅",
    "county": "国网信阳供电公司"
  },
  {
    "name": "信阳市区平桥区查山供电所",
    "account": "4105165034219",
    "lng": "114.204986",
    "lat": "32.253",
    "capacity": "27",
    "power": "信阳市区平桥区查山供电所",
    "county": "国网信阳供电公司"
  },
  {
    "name": "信阳市宝石桥检修公司",
    "account": "4105165611795",
    "lng": "114.075",
    "lat": "32.095657",
    "capacity": "19.28",
    "power": "信阳市宝石桥检修公司",
    "county": "国网信阳供电公司"
  },
  {
    "name": "信阳市宝石桥检修公司",
    "account": "4105165615843",
    "lng": "114.075",
    "lat": "32.095657",
    "capacity": "39.6",
    "power": "信阳市宝石桥检修公司",
    "county": "国网信阳供电公司"
  },
  {
    "name": "信阳市区平桥区彭家湾供电所",
    "account": "4105165680904",
    "lng": "114.204986",
    "lat": "32.253",
    "capacity": "24.75",
    "power": "信阳市区平桥区彭家湾供电所",
    "county": "国网信阳供电公司"
  },
  {
    "name": "信阳市区平桥区胡店供电所",
    "account": "4105165685358",
    "lng": "114.204986",
    "lat": "32.253",
    "capacity": "11.55",
    "power": "信阳市区平桥区胡店供电所",
    "county": "国网信阳供电公司"
  },
  {
    "name": "信阳市区平桥区龙井供电所",
    "account": "4105165689581",
    "lng": "114.204986",
    "lat": "32.253",
    "capacity": "23.1",
    "power": "信阳市区平桥区龙井供电所",
    "county": "国网信阳供电公司"
  },
  {
    "name": "信阳市区平桥区肖王供电所",
    "account": "4105165692031",
    "lng": "114.204986",
    "lat": "32.253",
    "capacity": "10",
    "power": "信阳市区平桥区肖王供电所",
    "county": "国网信阳供电公司"
  },
  {
    "name": "信阳市潢川县供电局停车库",
    "account": "4105165576403",
    "lng": "115.052073",
    "lat": "32.159334",
    "capacity": "15.95",
    "power": "信阳市潢川县供电局停车库",
    "county": "国网信阳供电公司"
  },
  {
    "name": "信阳市浉河区双井供电所",
    "account": "4105165926758",
    "lng": "114.106307",
    "lat": "32.032124",
    "capacity": "16.5",
    "power": "信阳市浉河区双井供电所",
    "county": "国网信阳供电公司"
  },
  {
    "name": "濮阳市长庆路供电所",
    "account": "4150001608246",
    "lng": "115.064",
    "lat": "35.775",
    "capacity": "230",
    "power": "濮阳市长庆路供电所",
    "county": "国网濮阳供电公司"
  }
]
